     3.04           OBSERVATION DATA    M (MIXED)           RINEX VERSION / TYPE
RINEXWRITER         GARMIN              20240626 150010 UTC PGM / RUN BY / DATE
Download navigation file using this link:                   COMMENT
ftp://cddis.gsfc.nasa.gov/gnss/data/daily/2024/178/24p/     COMMENT
BRDC00IGS_R_20241780000_01D_MN.rnx.gz                       COMMENT
GARMIN MARKER                                               MARKER NAME
                                                            MARKER NUMBER
                                                            MARKER TYPE
                                                            OBSERVER / AGENCY
GPSMAP 66sr 3.80                                            REC # / TYPE / VERS
                                                            ANT # / TYPE
  3863813.7500  1324236.2500  4882738.0000                  APPROX POSITION XYZ
        0.0000        0.0000        0.0000                  ANTENNA: DELTA H/E/N
G    8 C1C L1C D1C S1C C5X L5X D5X S5X                      SYS / # / OBS TYPES
R    4 C1C L1C D1C S1C                                      SYS / # / OBS TYPES
E    8 C1Z L1Z D1Z S1Z C5X L5X D5X S5X                      SYS / # / OBS TYPES
C    4 C1X L1X D1X S1X                                      SYS / # / OBS TYPES
J    8 C1C L1C D1C S1C C5X L5X D5X S5X                      SYS / # / OBS TYPES
I    4 C5A L5A D5A S5A                                      SYS / # / OBS TYPES
  2024     6    26    15     0   10.000000                  TIME OF FIRST OBS
G                                                           SYS / PHASE SHIFT   
R                                                           SYS / PHASE SHIFT   
E                                                           SYS / PHASE SHIFT   
C                                                           SYS / PHASE SHIFT   
J                                                           SYS / PHASE SHIFT   
I                                                           SYS / PHASE SHIFT   
  0                                                         GLONASS SLOT / FRQ #
 C1C    0.000 C1P    0.000 C2C    0.000 C2P    0.000        GLONASS COD/PHS/BIS 
                                                            END OF HEADER
> 2024 06 26 15 00 10.0000000  0 15       0.000000000000
G02  23094103.555                       -2539.784          21.000                                                                  
G03  20095305.202   105601540.821        -133.369          35.625    20095306.495    78858298.608         -99.499          40.375  
G04  20513747.529   107800471.168        2053.358          33.250    20513741.982    80500329.576        1533.332          33.750  
G06  22927866.839   120486753.417        3583.780          36.375    22927868.272    89973880.080        2676.133          37.000  
G09  22826829.659   119955799.040        3860.172          26.250    22826822.018    89577353.495        2882.812          25.500  
G17  23028866.333                       -1399.849          20.250                                                                  
G19  22390535.133   117663056.668         -47.536          28.500                                                                  
G28  23724274.542   124671904.437       -1599.761          43.250                                                                  
G31  22066857.744   115962119.794         339.822          43.000                                                                  
R02  22339511.338   119207912.850        3863.005          24.875  
R09  22976901.242   122695370.024        -384.254          37.125  
R01  19395472.058   103679914.359        1291.174          32.000  
R24  19735074.819   105532313.568        -852.618          30.125  
R17  21169255.396   113280962.440        3484.642          33.250  
R08  21103996.826   113010944.374       -2349.739          38.375  
> 2024 06 26 15 00 11.0000000  0 15       0.000000000000
G02  23094705.379                       -2538.568          22.750                                                                  
G03  20095438.661   105602257.969        -133.992          35.250    20095442.677    78858834.116         -99.773          40.375  
G04  20513464.626   107799001.421        2053.147          33.000    20513464.035    80499232.015        1533.288          33.875  
G06  22927295.169   120483753.467        3583.405          35.875    22927297.789    89971639.852        2675.939          36.625  
G09  22826197.332   119952522.640        3859.949          26.250    22826203.721    89574906.823        2882.271          25.375  
G17                                     -1400.324          19.125                                                                  
G19  22390656.237   117663688.329         -48.431          28.625                                                                  
G28  23724687.275   124674088.081       -1600.364          42.750                                                                  
G31  22066902.626   115962363.852         339.208          42.750                                                                  
R02  22338916.006   119204642.601        3862.799          25.125  
R09  22977094.312   122696347.840        -385.141          36.750  
R01  19395344.671   103679217.277        1290.350          31.750  
R24  19735336.014   105533760.662        -853.855          29.875  
R17  21168721.210   113278072.118        3484.018          32.625  
R08  21104547.485   113013889.250       -2350.395          38.000  
> 2024 06 26 15 00 12.0000000  0 15       0.000000000000
G02  23095298.337   121366612.285       -2540.117          24.000                                                                  
G03  20095572.958   105602975.985        -134.480          35.375    20095579.556    78859370.323        -100.443          40.500  
G04  20513183.608   107797532.629        2052.373          32.875    20513183.994    80498135.225        1532.797          34.000  
G06  22926724.966   120480754.270        3583.142          35.875    22926727.167    89969400.230        2675.480          36.750  
G09  22825581.968   119949246.958        3859.156          27.375    22825578.794                        2882.066          25.250  
G17  23029621.579                       -1400.050          16.375                                                                  
G19  22390778.598   117664321.094         -49.115          28.875                                                                  
G28  23725103.218   124676272.725       -1600.967          42.500                                                                  
G31  22066950.928   115962609.114         338.355          42.375                                                                  
R02  22338298.826   119201373.123        3862.114          25.125  
R09  22977274.886   122697326.950        -386.191          37.125  
R01  19395213.725   103678521.173        1289.807          31.625  
R24  19735609.983   105535209.021        -854.318          29.625  
R17  21168187.303   113275182.990        3483.238          33.000  
R08  21105098.842   113016834.765       -2350.562          38.125  
> 2024 06 26 15 00 13.0000000  0 16       0.000000000000
G02  23095902.394                       -2539.898          23.125                                                                  
G03  20095714.025   105603695.120        -137.190          39.875    20095716.645    78859907.374        -102.797          41.250  
G04  20512899.588   107796065.268        2049.890          33.625    20512905.698    80497039.454        1529.990          34.875  
G06  22926158.601   120477755.294        3582.226          35.875    22926156.754    89967160.693        2674.804          36.125  
G09  22824957.738   119945971.505        3859.540          26.375    22824953.378    89570015.047        2879.677          26.500  
G17  23030031.659                       -1408.074          26.875                                                                  
G19  22390894.886   117664953.979         -49.481          28.125                                                                  
G28  23725522.093   124678457.420       -1600.345          42.125                                                                  
G31  22066999.510   115962855.284         336.081          42.250                                                                  
R02  22337658.822   119198103.927        3860.800          26.625  
R09  22977452.669   122698306.331        -387.432          36.125  
R01  19395078.730                        1286.624          31.000  
R24  19735873.132   105536659.098        -857.893          29.500  
R17  21167634.899   113272294.597        3481.666          33.875  
R08  21105652.782   113019780.639       -2352.098          38.250  
E12                                      1489.680          33.625                                                                  
> 2024 06 26 15 00 14.0000000  0 16       0.000000000000
G02  23096491.933   121372860.177       -2540.707          27.625                                                                  
G03  20095853.767   105604414.768        -134.849          40.000    20095853.943    78860444.836        -101.338          38.625  
G04  20512618.639   107794598.358        2051.943          31.875    20512623.492    80495944.095        1531.010          33.000  
G06  22925585.675   120474756.650        3582.317          32.125    22925585.154    89964921.550        2674.436          34.375  
G09  22824328.064   119942695.288        3861.192          27.000    22824329.078    89567569.053        2881.634          27.875  
G17  23030406.909   121025604.891       -1406.732          38.250                                                                  
G19  22391025.903   117665588.300         -50.887          34.250                                                                  
G28  23725932.523   124680642.922       -1600.800          38.625                                                                  
G31  22067040.762   115963102.215         338.292          39.125                                                                  
R02  22337051.205   119194834.589        3861.779          32.875  
R09  22977642.039   122699286.687        -386.843          34.500  
R01  19394957.835   103677132.238        1287.931          31.000  
R24  19736149.893                        -858.184          27.625  
R17  21167096.873   113269406.878        3481.732          34.875  
R08  21106196.531   113022726.797       -2350.014          34.875  
E12                                      1491.251          33.125                                                                  
> 2024 06 26 15 00 15.0000000  0 16       0.000000000000
G02  23097086.427                       -2537.186          23.250                                                                  
G03  20095988.692   105605132.604        -134.271          41.625    20095989.985    78860980.708        -100.204          36.750  
G04  20512342.995   107793129.644        2052.339          33.875    20512344.010    80494847.109        1532.839          32.250  
G06  22925003.885   120471756.948        3583.501          33.500    22925012.856    89962681.423        2676.078          33.125  
G09  22823701.531   119939419.215        3860.086          27.250    22823704.221    89565122.391        2882.939          27.875  
G17  23030783.554   121027594.159       -1405.624          39.750                                                                  
G19  22391141.284   117666221.658         -49.899          33.875                                                                  
G28  23726355.795   124682827.713       -1601.353          35.875                                                                  
G31  22067083.759   115963348.159         337.443          37.750                                                                  
R02  22336444.984   119191564.418        3862.959          32.875  
R09  22977816.821   122700266.772        -387.153          35.625  
R01  19394830.657   103676436.204        1289.601          33.625  
R24  19736411.506                        -857.117          25.750  
R17  21166560.314   113266518.200        3482.752          36.875  
R08  21106745.515   113025671.593       -2349.858          34.625  
E12                                      1492.406          35.375                                         716.376          15.000  
> 2024 06 26 15 00 16.0000000  0 16       0.000000000000
G02  23097674.918                       -2535.572          21.750                                                                  
G03  20096123.687   105605852.875        -134.349          44.250    20096127.353    78861518.548        -100.388          39.875  
G04  20512065.467   107791663.614        2051.477          36.000    20512066.062    80493752.455        1531.780          32.875  
G06  22924436.683   120468759.639        3582.994          35.500    22924441.536    89960443.148        2675.755          32.250  
G09  22823072.904   119936145.058        3860.011          27.750    22823083.202                        2882.269          26.625  
G17  23031164.388   121029585.868       -1406.234          38.000                                                                  
G19  22391261.132   117666857.791         -50.506          35.500                                                                  
G28  23726771.110   124685014.999       -1601.447          36.875                                                                  
G31  22067130.107   115963596.915         337.114          39.000                                                                  
R02  22335834.017   119188296.421        3862.697          31.625  
R09  22978001.863   122701249.777        -387.941          35.375  
R01  19394700.828   103675742.820        1289.288          35.625  
R24  19736702.995   105541007.567        -857.342          28.125  
R17  21166023.824   113263632.214        3482.333          38.125  
R08  21107292.684   113028618.741       -2350.308          35.750  
E12                                      1492.281          38.000                                        1113.695          27.250  
> 2024 06 26 15 00 17.0000000  0 16       0.000000000000
G02  23098273.530                       -2536.283          18.000                                                                  
G03  20096261.823   105606572.602        -135.472          43.250    20096263.116    78862055.987        -100.880          38.000  
G04  20511782.354   107790197.029        2050.929          33.000    20511788.813    80492657.385        1531.623          30.000  
G06  22923867.317   120465761.542        3582.197          34.875    22923872.798    89958204.375        2675.353          32.625  
G09  22822452.584   119932870.307        3858.239          25.125                                        2881.319          23.125  
G17  23031549.340   121031577.050       -1406.436          34.000                                                                  
G19  22391381.678   117667493.540         -51.499          35.375                                                                  
G28  23727187.054   124687201.766       -1602.380          38.500                                                                  
G31  22067181.969   115963845.342         335.761          40.375                                                                  
R02  22335215.651                        3863.456          26.875  
R09  22978187.533   122702232.560        -389.168          34.875  
R01  19394580.072   103675048.953        1288.151          34.500  
R24  19736976.544   105542459.866        -857.881          28.875  
R17  21165485.659   113260745.864        3481.265          38.000  
R08  21107852.418   113031564.989       -2350.785          35.875  
E12                                      1491.291          37.250                                        1112.200          33.625  
> 2024 06 26 15 00 18.0000000  0 16       0.000000000000
G02  23098871.305                       -2536.927          16.875                                                                  
G03  20096399.191   105607292.180        -134.629          42.250    20096400.484    78862593.382        -100.737          38.000  
G04  20511503.500   107788730.300        2051.344          31.875    20511511.355    80491562.095        1532.082          28.625  
G06  22923288.667   120462763.247        3583.132          32.750    22923303.153    89955965.428        2675.625          33.000  
G09  22821835.753                        3863.936          22.000    22821837.256    89557786.364        2882.804          22.500  
G17  23031924.031   121033568.090       -1406.244          32.250                                                                  
G19  22391501.805   117668129.464         -51.159          34.500                                                                  
G28  23727600.345   124689388.570       -1602.055          38.500                                                                  
G31  22067229.643   115964093.995         336.045          40.750                                                                  
R02  22334616.340                        3863.385          24.125  
R09  22978379.276   122703215.633        -388.991          34.875  
R01  19394435.863   103674355.063        1288.613          33.500  
R24  19737251.420   105543912.483        -857.651          30.250  
R17  21164937.652   113257859.631        3481.567          37.625  
R08  21108394.771   113034510.920       -2349.783          35.375  
E12                                      1491.659          37.000                                        1114.054          34.625  
> 2024 06 26 15 00 19.0000000  0 16       0.000000000000
G02  23099462.868                       -2538.447          17.125                                                                  
G03  20096536.768   105608013.346        -135.030          42.625    20096537.782    78863131.900        -100.853          38.375  
G04  20511230.508   107787265.227        2051.363          31.875    20511229.359    80490468.118        1531.635          27.500  
G06  22922719.092   120459766.439        3582.991          33.375    22922731.135    89953727.515        2675.739          32.500  
G09  22821245.098                        3857.529          20.500    22821214.772                        2882.634          22.375  
G17  23032302.143   121035560.678       -1406.412          32.750                                                                  
G19  22391623.189   117668767.774         -51.949          34.625                                                                  
G28  23728014.823   124691577.004       -1602.217          37.750                                                                  
G31  22067276.549   115964344.484         335.417          40.875                                                                  
R02  22334022.544                        3864.166          21.750  
R09  22978558.804   122704200.723        -389.814          35.125  
R01  19394304.847   103673662.846        1288.720          33.250  
R24  19737512.755   105545367.089        -858.201          29.875  
R17  21164408.840   113254975.309        3481.076          37.375  
R08  21108949.758   113037458.285       -2349.974          35.875  
E12                                      1491.501          37.125                                        1113.964          34.625  
> 2024 06 26 15 00 20.0000000  0 16       0.000000000000
G02  23100053.453                       -2538.579          16.250                                                                  
G03  20096673.508   105608734.288        -135.805          42.750    20096674.662    78863670.261        -101.430          38.125  
G04  20510942.091   107785800.073        2050.149          32.625    20510951.900    80489374.000        1530.964          27.625  
G06  22922147.074   120456769.249        3582.198          33.625    22922161.280    89951489.380        2675.351          32.500  
G09  22820621.776                        3858.494          16.750    22820594.172    89552896.634        2881.771          22.000  
G17  23032680.952   121037552.974       -1407.188          33.625                                                                  
G19  22391740.803   117669405.574         -52.839          35.000                                                                  
G28  23728430.278   124693765.387       -1603.501          37.125                                                                  
G31  22067327.085   115964595.031         334.223          41.625                                                                  
R02  22333374.582                        3859.862          21.125  
R09  22978741.263   122705185.910        -390.872          35.625  
R01  19394182.277   103672970.593        1287.410          33.750  
R24  19737780.790   105546821.946        -859.855          29.750  
R17  21163862.509   113252090.948        3480.013          37.375  
R08  21109505.582   113040405.243       -2350.525          36.500  
E12                                      1490.810          36.875                                        1113.270          34.500  
> 2024 06 26 15 00 21.0000000  0 16       0.000000000000
G02  23100649.623                       -2539.693          19.875                                                                  
G03  20096810.737   105609456.289        -135.792          44.000    20096813.007    78864209.411        -101.303          37.250  
G04  20510670.356   107784335.991        2050.357          34.625    20510668.090                        1531.592          26.625  
G06  22921579.104   120453773.082        3582.336          33.750    22921591.146    89949251.947        2675.114          32.250  
G09  22819993.428                        3860.951          21.375    22819966.452    89550452.258        2881.871          23.750  
G17  23033066.113   121039546.375       -1407.186          35.500                                                                  
G19  22391868.399   117670044.725         -52.732          35.250                                                                  
G28  23728849.781   124695954.810       -1603.185          35.000                                                                  
G31  22067373.014   115964846.928         334.169          40.125                                                                  
R02  22332747.421   119171956.164        3862.725          24.750  
R09  22978919.954   122706172.568        -391.138          34.375  
R01  19394054.541   103672279.466        1287.482          35.250  
R24  19738052.665   105548278.114        -859.402          28.250  
R17  21163320.854   113249207.885        3479.931          38.250  
R08  21110052.263   113043353.050       -2350.195          37.375  
E12                                      1490.799          38.375                                        1113.603          35.125  
> 2024 06 26 15 00 22.0000000  0 16       0.000000000000
G02  23101248.654                       -2539.619          18.250                                                                  
G03  20096950.478   105610179.581        -136.046          44.500    20096949.468    78864749.522        -101.497          37.500  
G04  20510392.200   107782873.363        2049.781          33.750    20510390.492    80487188.288        1530.426          27.250  
G06  22921015.671   120450778.028        3582.478          35.625    22921020.594    89947015.380        2675.094          33.375  
G09  22819342.325                        3861.769          23.750    22819342.502    89548008.670        2882.361          25.875  
G17  23033444.993   121041541.131       -1407.540          37.125                                                                  
G19  22391993.273   117670685.508         -53.903          35.500                                                                  
G28  23729265.236   124698145.626       -1603.534          33.875                                                                  
G31  22067419.850   115965100.448         333.414          38.250                                                                  
R02  22332163.606   119168690.202        3862.494          27.750  
R09  22979116.094   122707160.940        -391.671          36.000  
R01  19393923.036   103671589.756        1286.977          36.250  
R24  19738320.910   105549736.254        -860.904          29.125  
R17  21162794.555   113246326.331        3479.435          39.000  
R08  21110597.896   113046301.997       -2350.470          37.625  
E12                                      1490.731          39.000                                        1113.324          37.375  
> 2024 06 26 15 00 23.0000000  0 16       0.000000000000
G02  23101846.848                       -2540.287          18.000                                                                  
G03  20097086.101   105610902.414        -136.270          45.000    20097087.395    78865289.287        -101.734          38.625  
G04  20510109.506   107781410.428        2049.468          34.250    20510112.056    80486095.908        1530.143          26.250  
G06  22920443.094   120447782.475        3582.051          34.875    22920449.971    89944778.427        2674.915          32.625  
G09  22818719.213   119913241.821        3858.752          24.250    22818722.181                        2881.968          24.500  
G17  23033824.221   121043535.503       -1407.806          35.250                                                                  
G19  22392110.189   117671326.025         -53.913          34.625                                                                  
G28  23729684.809   124700336.168       -1603.913          35.750                                                                  
G31  22067471.363   115965353.806         333.131          39.500                                                                  
R02  22331537.073   119165423.720        3861.692          25.500  
R09  22979304.347   122708149.235        -392.505          35.500  
R01  19393795.579   103670899.624        1287.027          35.125  
R24  19738583.012   105551194.498        -861.566          27.125  
R17  21162247.316   113243444.535        3479.026          38.500  
R08  21111149.253   113049250.264       -2350.369          37.375  
E12                                      1490.573          38.750                                        1113.165          36.000  
> 2024 06 26 15 00 24.0000000  0 16       0.000000000000
G02  23102444.762                       -2539.555          18.500                                                                  
G03  20097225.842   105611626.090        -136.182          46.000    20097226.089    78865829.667        -101.481          39.750  
G04  20509830.442   107779948.321        2049.688          33.375    20509836.691    80485004.180        1530.268          24.375  
G06  22919872.123   120444787.614        3582.111          33.125    22919881.373    89942542.015        2675.230          32.750  
G09  22818094.425                        3860.788          19.875                                        2882.101          22.250  
G17  23034206.381   121045530.606       -1407.735          35.375                                                                  
G19  22392243.021   117671967.625         -54.282          37.375                                                                  
G28  23730100.473   124702527.624       -1603.976          36.875                                                                  
G31  22067517.711   115965608.277         332.775          39.625                                                                  
R02  22330957.516   119162157.800        3862.521          24.250  
R09  22979498.603   122709138.758        -392.794          35.500  
R01  19393656.536   103670210.522        1286.546          33.500  
R24  19738839.251   105552653.981        -861.962          26.875  
R17  21161719.551   113240563.838        3478.815          38.125  
R08  21111698.517   113052199.218       -2350.215          37.000  
E12                                      1490.505          37.000                                        1113.335          34.500  
> 2024 06 26 15 00 25.0000000  0 16       0.000000000000
G02  23103041.001                       -2539.600          17.625                                                                  
G03  20097363.560   105612350.000        -136.268          46.125    20097363.248    78866370.304        -102.083          39.625  
G04  20509550.401   107778486.616        2049.013          32.125                                        1530.280          23.875  
G06  22919305.688   120441792.878        3582.284          32.875    22919310.542    89940305.711        2674.910          33.375  
G09  22817473.127                        3860.790          18.875                                        2882.573          21.250  
G17  23034582.607   121047525.981       -1407.641          35.500                                                                  
G19  22392360.426   117672609.766         -54.740          37.750                                                                  
G28  23730518.092   124704719.393       -1604.269          37.500                                                                  
G31  22067566.013   115965863.280         332.411          39.375                                                                  
R02  22330341.035                        3862.303          23.250  
R09  22979669.964   122710128.888        -393.178          35.500  
R01  19393533.966   103669521.744        1286.276          32.750  
R24  19739142.536   105554114.070        -862.272          28.250  
R17  21161175.104   113237683.608        3478.607          38.125  
R08  21112251.759   113055148.238       -2350.250          37.250  
E12                                      1490.578          35.250                                        1112.853          34.125  
> 2024 06 26 15 00 26.0000000  0 17       0.000000000000
G02  23103637.310                       -2538.056          16.250                                                                  
G03  20097502.394   105613074.384        -136.925          46.125    20097500.616    78866911.219        -102.115          39.375  
G04  20509278.456   107777025.380        2048.589          31.500                                        1527.234          23.750  
G06  22918728.156   120438798.469        3581.938          32.625    22918741.245    89938069.630        2674.960          33.750  
G09  22816850.573                        3860.062          19.250                                        2884.338          20.625  
G17  23034961.905   121049521.841       -1408.432          34.875                                                                  
G19  22392482.298   117673252.653         -55.765          37.125                                                                  
G28  23730935.013   124706911.693       -1604.776          37.625                                                                  
G31  22067616.200   115966119.064         331.552          39.750                                                                  
R10  22537659.165   120138405.456        2503.235          23.750  
R02  22329732.301                        3859.808          20.750  
R09  22979852.354   122711119.883        -394.311          35.375  
R01  19393386.127   103668833.510        1285.895          32.750  
R24  19739404.150   105555575.066        -863.584          29.375  
R17  21160630.936   113234804.040        3477.704          38.250  
R08  21112810.445   113058097.519       -2350.635          37.375  
E12                                      1490.097          35.125                                        1112.643          34.000  
> 2024 06 26 15 00 27.0000000  0 17       0.000000000000
G02  23104230.618                       -2538.374          19.500                                                                  
G03  20097637.668   105613799.355        -137.218          46.125    20097638.961    78867452.571        -102.369          39.375  
G04  20509001.137   107775564.853        2048.321          32.125    20509007.387    80481692.843        1529.267          24.000  
G06  22918160.255   120435804.588        3581.552          32.000    22918171.251    89935833.926        2674.736          33.750  
G09  22816229.345                        3861.268          20.000    22816229.033                        2885.333          20.625  
G17  23035341.832   121051518.290       -1408.647          35.000                                                                  
G19  22392600.122   117673896.365         -56.112          36.375                                                                  
G28  23731351.724   124709104.688       -1605.276          37.875                                                                  
G31  22067667.434   115966375.725         331.025          40.500                                                                  
R10  22537325.796                        2502.026          24.250  
R02  22329118.263                        3860.801          21.875  
R09  22980040.816   122712111.869        -394.767          35.625  
R01  19393267.256   103668146.012        1285.566          32.875  
R24  19739659.342   105557037.064        -864.132          28.500  
R17  21160099.961   113231925.330        3476.959          38.375  
R08  21113356.358   113061047.164       -2350.764          37.000  
E12                                      1489.784          35.000                                        1112.376          34.125  
> 2024 06 26 15 00 28.0000000  0 17       0.000000000000
G02  23104825.531                       -2538.575          20.250                                                                  
G03  20097778.735   105614524.464        -137.483          45.875    20097777.027    78867994.067        -102.580          39.250  
G04  20508717.955   107774104.585        2047.677          33.500    20508726.229    80480602.266        1529.709          25.875  
G06  22917588.795   120432810.654        3581.655          32.500    22917601.117    89933598.192        2674.810          32.875  
G09  22815606.162                        3860.126          15.750    22815608.224                        2882.773          20.500  
G17  23035724.759   121053514.878       -1408.850          34.250                                                                  
G19  22392727.578   117674540.550         -56.554          36.750                                                                  
G28  23731768.435   124711297.891       -1605.441          37.750                                                                  
G31  22067714.410   115966632.831         330.476          40.250                                                                  
R10  22536994.241   120134592.899        2502.625          24.250  
R02  22328493.335                        3862.031          21.000  
R09  22980228.581   122713104.458        -395.709          35.625  
R01  19393142.871   103667458.755        1285.135          33.125  
R24  19739935.893   105558499.518        -864.575          27.750  
R17  21159561.447   113229046.920        3476.769          38.500  
R08  21113908.413   113063996.761       -2350.836          37.125  
E12                                      1489.627          36.250                                        1112.391          34.250  
> 2024 06 26 15 00 29.0000000  0 17       0.000000000000
G02  23105420.165                       -2541.719          22.500                                                                  
G03  20097914.638   105615249.679        -137.590          45.250    20097915.512    78868535.644        -102.733          38.250  
G04  20508444.475   107772644.411        2047.770          34.875                                        1529.113          25.125  
G06  22917029.969   120429816.725        3581.664          33.375    22917033.566    89931362.499        2674.590          33.500  
G09  22814979.769                        3861.366          19.875    22814988.880                        2882.248          22.500  
G17  23036108.455   121055511.570       -1409.023          34.750                                                                  
G19  22392852.173   117675185.055         -56.890          35.375                                                                  
G28  23732187.380   124713491.322       -1605.671          35.625                                                                  
G31  22067762.433   115966890.351         329.957          39.375                                                                  
R10  22536642.445                        2499.731          22.875  
R02  22327887.463                        3858.419          20.250  
R09  22980429.328   122714097.500        -396.078          34.875  
R01  19393013.809   103666771.700        1284.821          34.500  
R24  19740217.958   105559962.571        -865.053          28.750  
R17  21159023.980   113226168.877        3476.315          38.750  
R08  21114459.700   113066946.226       -2350.598          37.500  
E12                                      1489.438          37.750                                        1112.380          35.000  
> 2024 06 26 15 00 30.0000000  0 17       0.000000000000
G02  23106015.217   121422888.224       -2540.935          24.750                                                                  
G03  20098054.518   105615976.355        -137.727          45.000    20098052.950    78869078.255        -102.620          37.375  
G04  20508167.505   107771185.873        2047.475          34.500    20508169.636                        1529.366          25.875  
G06  22916449.854   120426824.215        3581.728          32.875    22916462.106    89929127.779        2675.156          33.875  
G09  22814353.864                        3859.951          20.375    22814367.164    89528476.635        2881.895          24.000  
G17  23036477.632   121057509.742       -1409.151          34.750                                                                  
G19  22392969.857   117675831.293         -57.149          34.500                                                                  
G28  23732608.140   124715686.342       -1605.884          34.375                                                                  
G31  22067813.597   115967149.573         329.774          38.875                                                                  
R10  22536277.316                        2501.624          23.000  
R02  22327264.141                        3859.608          21.625  
R09  22980597.618   122715092.436        -396.714          34.000  
R01  19392889.633   103666086.219        1284.670          34.750  
R24  19740495.556   105561427.661        -865.678          30.000  
R17  21158489.375   113223292.550        3476.047          39.000  
R08  21115001.634   113069896.966       -2350.211          36.875  
E12                                      1489.414          37.500                                        1112.231          34.625  
> 2024 06 26 15 00 31.0000000  0 17       0.000000000000
G02  23106613.341   121426017.885       -2540.403          24.125                                                                  
G03  20098193.841   105616702.888        -137.701          45.500    20098192.063    78869620.795        -102.811          37.875  
G04  20507888.650   107769727.219        2047.531          34.375    20507892.736    80477333.561        1528.782          28.250  
G06  22915882.512   120423831.369        3581.915          33.750    22915892.810    89926892.978        2674.375          33.000  
G09  22813728.448                        3860.515          20.500    22813740.700    89526034.240        2882.350          23.875  
G17  23036858.814   121059507.735       -1408.885          33.250                                                                  
G19  22393090.962   117676477.622         -57.461          35.000                                                                  
G28  23733024.782   124717881.251       -1606.043          35.375                                                                  
G31  22067860.852   115967408.965         329.363          39.500                                                                  
R10  22535919.656   120128879.821        2500.308          23.875  
R02  22326645.635                        3857.362          21.500  
R09  22980790.478   122716087.555        -396.809          34.750  
R01  19392766.784   103665400.668        1284.668          34.250  
R24  19740786.207   105562893.083        -866.291          30.500  
R17  21157953.025   113220416.281        3476.055          39.250  
R08  21115560.530   113072847.438       -2350.458          37.500  
E12                                      1489.464          37.250                                        1112.220          34.125  
> 2024 06 26 15 00 32.0000000  0 17       0.000000000000
G02  23107207.765   121429147.663       -2540.202          24.750                                                                  
G03  20098332.117   105617430.107        -137.838          44.875    20098329.711    78870163.927        -103.023          39.375  
G04  20507615.101   107768269.222        2047.158          34.625    20507612.974    80476244.537        1528.846          30.250  
G06  22915312.658   120420839.225        3581.422          34.875    22915324.421    89924658.448        2674.616          33.375  
G09  22813111.548   119883785.171        3858.763          25.875    22813117.309                        2882.073          23.625  
G17  23037240.974   121061506.477       -1409.569          37.000                                                                  
G19  22393216.045   117677124.907         -58.104          34.750                                                                  
G28  23733445.123   124720076.960       -1606.304          38.125                                                                  
G31  22067912.156   115967669.395         328.695          41.750                                                                  
R10  22535559.344   120126977.036        2500.406          23.625  
R02  22326024.966   119136038.151        3862.204          26.000  
R09  22980971.820   122717083.815        -397.646          35.875  
R01  19392644.702   103664715.988        1283.886          35.875  
R24  19741065.690   105564359.404        -866.934          31.625  
R17  21157416.744   113217541.012        3475.301          39.500  
R08  21116118.798   113075798.375       -2350.661          35.250  
E12                                      1489.006          38.250                                        1111.965          36.500  
> 2024 06 26 15 00 33.0000000  0 17       0.000000000000
G02  23107806.448                       -2541.064          22.750                                                                  
G03  20098467.879   105618156.633        -138.364          43.500    20098467.009    78870706.463        -103.300          39.500  
G04  20507334.222   107766810.724        2046.609          36.375    20507337.121    80475155.334        1528.679          35.000  
G06  22914747.689   120417846.182        3581.208          34.625    22914754.357    89922423.394        2674.672          33.875  
G09  22812488.994   119880514.189        3858.729          29.125    22812495.801    89521149.751        2882.225          27.000  
G17  23037620.761   121063504.550       -1409.788          39.750                                                                  
G19  22393340.779   117677771.791         -58.845          34.250                                                                  
G28  23733858.134   124722272.058       -1606.989          37.000                                                                  
G31  22067962.412   115967929.360         328.048          40.125                                                                  
R10  22535193.727                        2499.249          23.625  
R02  22325403.389   119132773.657        3861.793          29.250  
R09  22981153.652   122718079.675        -398.331          34.750  
R01  19392514.174   103664030.654        1283.563          36.750  
R24  19741341.752   105565825.587        -867.560          32.375  
R17  21156879.836   113214665.188        3475.000          39.625  
R08  21116662.267   113078748.440       -2350.568          36.125  
E12                                      1488.850          38.375                                        1111.640          39.125  
> 2024 06 26 15 00 34.0000000  0 17       0.000000000000
G02  23108409.597                       -2540.824          20.125                                                                  
G03  20098606.643   105618883.401        -138.521          43.000    20098604.935    78871249.147        -103.017          38.875  
G04  20507058.020   107765352.512        2046.662          38.000    20507060.360    80474066.448        1528.503          39.125  
G06  22914176.858   120414853.299        3580.936          34.375    22914185.271    89920188.435        2674.440          34.375  
G09  22811867.417   119877243.346        3859.389          33.125    22811872.340    89518707.361        2882.074          31.125  
G17  23037998.593   121065502.835       -1409.996          38.750                                                                  
G19  22393469.631   117678419.189         -59.134          34.875                                                                  
G28  23734276.451   124724467.457       -1606.990          37.250                                                                  
G31  22068010.924   115968189.869         327.758          39.500                                                                  
R10  22534835.439                        2500.089          22.500  
R02  22324780.206   119129509.154        3861.956          28.375  
R09  22981348.187   122719076.172        -398.684          35.125  
R01  19392373.386   103663345.591        1283.848          35.125  
R24  19741611.533   105567292.404        -868.167          37.250  
R17  21156345.231   113211789.831        3474.664          39.750  
R08  21117213.974   113081698.482       -2350.173          36.375  
E12                                      1488.762          36.750                                        1111.793          38.250  
> 2024 06 26 15 00 35.0000000  0 17       0.000000000000
G02  23109004.510                       -2540.651          19.375                                                                  
G03  20098744.012   105619611.808        -138.457          43.000    20098743.700    78871793.130        -103.432          37.625  
G04  20506780.282   107763896.104        2046.232          40.375    20506781.924    80472978.894        1528.118          40.625  
G06  22913608.399   120411861.920        3581.272          34.250    22913618.069    89917954.640        2674.576          34.750  
G09  22811246.328   119873974.000        3859.524          35.125    22811249.995    89516265.952        2882.343          32.875  
G17  23038379.497   121067502.794       -1410.170          39.125                                                                  
G19  22393588.712   117679068.503         -59.308          35.250                                                                  
G28  23734696.373   124726664.594       -1607.222          37.000                                                                  
G31  22068057.272   115968452.368         327.085          39.750                                                                  
R10  22534486.016                        2498.511          22.000  
R02  22324156.396   119126246.098        3862.416          27.875  
R09  22981536.719   122720074.766        -399.272          35.125  
R01  19392253.817   103662662.384        1283.574          35.250  
R24  19741889.201   105568761.419        -869.013          39.375  
R17  21155805.111   113208916.391        3474.045          39.250  
R08  21117758.770   113084650.063       -2350.271          36.625  
E12                                      1488.576          37.000                                        1111.591          38.500  
> 2024 06 26 15 00 36.0000000  0 17       0.000000000000
G02  23109601.587                       -2538.441          21.375                                                                  
G03  20098883.613   105620340.074        -138.153          43.000    20098882.185    78872337.006        -103.339          38.625  
G04  20506502.125   107762439.641        2046.500          41.125    20506505.164    80471891.265        1528.166          40.875  
G06  22913041.825   120408870.315        3581.698          35.500    22913046.958    89915720.651        2674.885          34.125  
G09  22810626.985   119870704.345        3859.764          34.250    22810628.697    89513824.384        2881.990          32.625  
G17  23038759.004   121069502.613       -1409.803          37.750                                                                  
G19  22393712.887   117679717.945         -59.272          35.500                                                                  
G28  23735112.526   124728861.748       -1607.192          37.250                                                                  
G31  22068111.577   115968714.940         327.450          40.250                                                                  
R10  22534110.487                        2496.802          22.500  
R02  22323556.876   119122982.721        3862.870          27.625  
R09  22981715.479   122721073.573        -399.522          34.750  
R01  19392131.805   103661979.172        1283.318          35.250  
R24  19742158.423   105570230.705        -869.223          40.125  
R17  21155264.224   113206043.025        3474.045          39.500  
R08  21118312.779   113087601.289       -2349.809          36.875  
E12  24144605.747   126880758.781        1488.845          36.875    24144607.110    94748623.932        1111.631          37.750  
> 2024 06 26 15 00 37.0000000  0 17       0.000000000000
G02  23110199.920                       -2535.734          20.125                                                                  
G03  20099019.097   105621068.733        -138.479          43.000    20099021.088    78872881.106        -103.399          38.875  
G04  20506226.761   107760983.653        2045.991          41.125    20506228.333    80470803.997        1527.774          41.000  
G06  22912467.084   120405878.952        3581.582          35.000    22912477.103    89913486.878        2674.393          34.125  
G09  22810006.036   119867435.373        3859.478          34.250    22810006.422    89511382.851        2882.356          32.750  
G17  23039134.882   121071502.803       -1410.163          36.000                                                                  
G19  22393830.362   117680367.983         -59.891          34.250                                                                  
G28  23735530.703   124731059.329       -1607.439          36.250                                                                  
G31  22068158.622   115968978.261         326.589          40.250                                                                  
R10  22533787.378   120117470.326        2497.794          23.250  
R02  22322952.260   119119719.652        3862.387          28.000  
R09  22981906.594   122722073.144        -400.104          35.125  
R01  19391993.110   103661296.402        1282.857          35.250  
R24  19742431.414   105571700.819        -869.733          39.625  
R17  21154718.591   113203170.264        3473.509          39.250  
R08  21118864.904   113090552.748       -2350.132          36.250  
E12  24144437.038   126879860.243        1488.702          37.125    24144436.238    94747952.955        1111.512          37.875  
> 2024 06 26 15 00 38.0000000  0 17       0.000000000000
G02  23110791.343                       -2543.550          18.500                                                                  
G03  20099162.119   105621797.671        -138.469          43.625    20099159.783    78873425.448        -103.402          39.000  
G04  20505946.929   107759528.005        2045.955          40.500    20505951.433    80469716.998        1527.808          41.375  
G06  22911901.488   120402887.756        3581.805          35.125    22911909.901    89911253.179        2674.751          33.500  
G09  22809382.295   119864166.010        3859.989          33.875    22809384.287    89508941.474        2882.172          33.000  
G17  23039518.019   121073503.258       -1410.228          35.875                                                                  
G19  22393952.374   117681018.615         -60.357          34.625                                                                  
G28  23735948.113   124733257.321       -1607.694          36.625                                                                  
G31  22068211.322   115969242.136         326.586          40.500                                                                  
R10  22533415.060   120115571.127        2497.445          24.000  
R02  22322359.302   119116456.645        3862.562          27.625  
R09  22982086.052   122723073.399        -400.328          35.000  
R01  19391867.189   103660614.019        1282.779          35.125  
R24  19742705.243   105573171.669        -870.141          39.000  
R17  21154184.823   113200297.998        3473.432          38.625  
R08  21119415.424   113093504.231       -2349.746          35.750  
E12  24144263.862   126878961.977        1488.937          37.250    24144265.225    94747282.211        1111.424          38.000  
> 2024 06 26 15 00 39.0000000  0 17       0.000000000000
G02  23111381.300                       -2543.475          17.625                                                                  
G03  20099297.044   105622527.263        -139.772          43.500    20099297.988    78873970.231        -104.217          38.250  
G04  20505670.587   107758073.109        2044.612          40.250    20505674.603    80468630.521        1526.919          41.000  
G06  22911334.146   120399897.111        3580.600          35.000    22911339.907    89909019.925        2673.638          33.625  
G09  22808763.371   119860897.102        3858.973          34.000    22808762.221    89506500.386        2881.623          32.500  
G17  23039894.804   121075504.381       -1411.439          35.750                                                                  
G19  22394079.761   117681670.131         -61.588          34.500                                                                  
G28  23736368.942   124735456.019       -1608.995          36.375                                                                  
G31  22068258.787   115969506.944         324.808          40.000                                                                  
R10  22533054.329                        2493.281          23.625  
R02  22321745.473   119113194.125        3861.615          27.750  
R09  22982267.325   122724074.733        -401.885          34.875  
R01  19391737.918   103659932.418        1281.358          34.750  
R24  19742979.630   105574643.584        -871.866          38.375  
R17  21153653.010   113197426.655        3471.886          38.875  
R08  21119973.482   113096456.163       -2350.652          35.250  
E12  24144093.897   126878064.362        1487.237          37.000    24144094.143    94746611.869        1110.733          37.500  
> 2024 06 26 15 00 40.0000000  0 17       0.000000000000
G02  23111975.446                       -2542.968          22.000                                                                  
G03  20099439.438   105623257.700        -140.529          43.375    20099437.101    78874515.690        -104.735          38.375  
G04  20505395.153   107756619.113        2044.019          40.000    20505398.052    80467544.762        1526.446          41.125  
G06  22910764.431   120396907.233        3579.907          35.125    22910770.192    89906787.170        2673.503          34.750  
G09  22808138.862   119857628.893        3858.353          33.250    22808138.620    89504059.868        2881.213          32.500  
G17  23040277.941   121077506.312       -1412.079          36.000                                                                  
G19  22394206.798   117682322.832         -62.904          35.500                                                                  
G28  23736783.909   124737655.619       -1609.652          35.750                                                                  
G31  22068313.510   115969772.876         323.841          39.625                                                                  
R10  22532703.021                        2495.479          23.375  
R02  22321124.384   119109932.291        3861.313          27.875  
R09  22982462.558   122725077.317        -403.353          34.750  
R01  19391598.316   103659251.763        1280.824          34.500  
R24  19743257.507   105576116.856        -873.324          38.500  
R17  21153119.801   113194556.422        3470.834          39.250  
R08  21120520.791   113099408.794       -2351.340          35.750  
E12  24143920.791   126877167.535        1486.899          36.500    24143923.759    94745942.138        1110.464          37.875  
> 2024 06 26 15 00 41.0000000  0 17       0.000000000000
G02  23112555.351                       -2540.482          21.625                                                                  
G03  20099573.386   105623988.532        -140.455          42.875    20099575.935    78875061.466        -104.828          38.250  
G04  20505116.926   107755165.685        2043.700          40.125    20505120.942    80466459.389        1526.324          41.125  
G06  22910199.881   120393917.658        3580.027          35.875    22910201.384    89904554.757        2673.118          35.000  
G09  22807516.238   119854360.960        3858.493          32.750    22807518.439    89501619.518        2881.191          32.500  
G17  23040663.382   121079508.774       -1412.393          36.500                                                                  
G19  22394329.299   117682976.122         -63.021          34.875                                                                  
G28  23737205.646   124739855.816       -1609.891          37.500                                                                  
G31  22068363.558   115970039.567         323.446          40.500                                                                  
R10  22532357.018   120109879.567        2495.051          23.500  
R02  22320516.558   119106670.661        3861.104          28.375  
R09  22982644.389   122726080.706        -403.828          34.375  
R01  19391488.171   103658571.653        1280.714          34.375  
R24  19743537.549   105577590.956        -873.531          38.875  
R17  21152575.075   113191686.774        3470.645          39.000  
R08  21121074.172   113102361.645       -2350.983          36.375  
E12  24143749.290   126876271.145        1486.718          36.500    24143753.794    94745272.756        1110.370          37.750  
> 2024 06 26 15 00 42.0000000  0 17       0.000000000000
G02  23113155.779                       -2536.897          20.500                                                                  
G03  20099718.292   105624719.653        -140.259          43.000    20099715.328    78875607.444        -104.675          38.375  
G04  20504839.886   107753712.522        2044.086          40.125    20504844.321    80465374.290        1526.466          40.625  
G06  22909624.443   120390928.262        3580.103          35.000    22909633.414    89902322.367        2673.808          34.750  
G09  22806896.266   119851092.987        3859.411          33.250    22806896.513    89499179.160        2882.026          34.125  
G17  23041040.586   121081511.373       -1411.494          37.000                                                                  
G19  22394459.198   117683629.994         -62.826          33.375                                                                  
G28  23737622.706   124742056.322       -1609.447          36.875                                                                  
G31  22068412.558   115970306.803         323.502          40.375                                                                  
R10  22531992.308   120107983.813        2494.745          24.125  
R02  22319938.467   119103409.148        3861.557          30.000  
R09  22982847.579   122727084.723        -403.768          34.625  
R01  19391354.781   103657891.954        1280.810          34.500  
R24  19743813.960   105579065.814        -873.703          38.625  
R17  21152049.544   113188817.594        3471.025          39.125  
R08  21121630.346   113105314.569       -2350.432          36.125  
E12  24143578.138   126875374.937        1487.238          36.250    24143582.154    94744603.530        1110.571          37.500  
> 2024 06 26 15 00 43.0000000  0 17       0.000000000000
G02  23113785.662                       -2535.248          19.375                                                                  
G03  20099855.451   105625451.797        -139.746          43.500    20099855.139    78876154.155        -104.341          38.000  
G04  20504564.731   107752260.532        2044.430          40.625    20504567.909    80464290.011        1526.792          40.750  
G06  22909060.731   120387939.714        3581.074          35.250    22909063.978    89900090.718        2673.783          35.000  
G09  22806271.897   119847825.957        3860.213          30.750    22806277.099    89496739.583        2881.853          31.375  
G17  23041426.166   121083515.149       -1411.372          36.875                                                                  
G19  22394576.324   117684285.122         -62.787          32.875                                                                  
G28  23738036.137   124744257.909       -1609.147          36.375                                                                  
G31  22068460.162   115970575.368         323.778          40.000                                                                  
R10  22531628.576   120106089.473        2495.003          25.125  
R02  22319317.937   119100148.490        3862.319          30.375  
R09  22983036.321   122728090.143        -403.673          34.000  
R01  19391232.280   103657213.389        1280.951          35.250  
R24  19744089.534   105580542.087        -873.805          38.625  
R17  21151506.493   113185949.725        3471.070          39.000  
R08  21122177.585   113108268.363       -2349.943          37.000  
E12  24143409.987   126874479.752        1487.610          36.750    24143411.839    94743935.036        1110.926          37.375  
> 2024 06 26 15 00 44.0000000  0 17       0.000000000000
G02  23114387.555                       -2537.557          21.250                                                                  
G03  20099996.239   105626183.935        -140.194          43.875    20099993.833    78876700.889        -104.616          37.875  
G04  20504290.204   107750808.631        2043.644          40.750    20504291.568    80463205.808        1526.277          40.875  
G06  22908491.155   120384951.098        3580.661          35.375    22908495.450    89897858.918        2673.781          34.625  
G09  22805655.276   119844558.749        3859.239          30.875    22805652.800    89494299.751        2881.845          29.875  
G17  23041801.555   121085518.819       -1411.632          36.125                                                                  
G19  22394703.432   117684940.594         -63.628          34.625                                                                  
G28  23738461.224   124746459.657       -1609.901          36.125                                                                  
G31  22068512.443   115970844.214         322.815          40.250                                                                  
R10  22531280.549                        2493.999          24.625  
R02  22318707.249   119096887.765        3861.662          29.500  
R09  22983219.199   122729095.976        -404.476          34.750  
R01  19391104.475   103656534.848        1280.357          34.500  
R24  19744362.037   105582018.773        -874.716          38.625  
R17  21150975.029   113183082.099        3470.176          38.250  
R08  21122740.669   113111221.948       -2350.329          36.875  
E12  24143240.301   126873584.524        1486.998          36.750    24143240.827    94743266.544        1110.486          37.375  
> 2024 06 26 15 00 45.0000000  0 17       0.000000000000
G02  23114993.287                       -2538.853          20.125                                                                  
G03  20100137.656   105626915.836        -140.401          44.125    20100133.365    78877247.480        -104.959          38.125  
G04  20504011.419   107749356.574        2043.349          41.125    20504015.086    80462121.506        1525.811          40.625  
G06  22907919.556   120381962.109        3580.503          35.125    22907928.457    89895626.942        2673.391          34.000  
G09  22805034.048   119841291.140        3859.224          31.125    22805030.455    89491859.651        2881.986          29.625  
G17  23042191.533   121087522.344       -1412.190          36.375                                                                  
G19  22394837.030   117685596.060         -64.120          36.500                                                                  
G28  23738879.750   124748661.270       -1610.269          36.000                                                                  
G31  22068566.608   115971113.131         322.406          40.500                                                                  
R10  22530921.981   120102301.576        2493.336          25.000  
R02  22318093.629   119093626.552        3861.999          28.625  
R09  22983395.796   122730102.005        -405.035          35.250  
R01  19390984.696   103655856.170        1280.417          33.875  
R24  19744640.123   105583495.673        -875.246          38.250  
R17  21150441.889   113180214.515        3469.652          38.625  
R08  21123275.623   113114175.087       -2350.313          36.750  
E12  24143067.823   126872689.054        1486.929          36.750    24143072.188    94742597.858        1110.319          37.375  
> 2024 06 26 15 00 46.0000000  0 17       0.000000000000
G02  23115593.575                       -2543.425          17.875                                                                  
G03  20100272.930   105627648.777        -140.937          43.625    20100272.269    78877794.777        -105.133          38.125  
G04  20503739.126   107747905.598        2043.096          41.375    20503739.024    80461037.972        1525.712          40.750  
G06  22907351.516   120378974.022        3580.272          34.375    22907358.254    89893395.557        2673.598          33.750  
G09  22804408.771   119838024.369        3858.908          30.500    22804410.135    89489420.209        2881.580          29.750  
G17  23042569.644   121089526.802       -1412.262          36.000                                                                  
G19  22394960.299   117686252.798         -64.748          36.500                                                                  
G28  23739297.927   124750863.927       -1610.755          36.250                                                                  
G31  22068619.797   115971383.356         321.758          40.625                                                                  
R10  22530560.134   120100408.964        2493.018          24.625  
R02  22317477.915   119090366.199        3861.634          29.125  
R09  22983595.217   122731109.383        -405.925          35.500  
R01  19390854.169   103655178.652        1279.894          33.750  
R24  19744916.046   105584974.059        -876.132          38.000  
R17  21149896.814   113177348.176        3469.125          38.375  
R08  21123823.350   113117129.043       -2350.444          36.625  
E12  24142900.301   126871794.552        1486.565          36.875    24142900.757    94741929.873        1110.215          37.375  
> 2024 06 26 15 00 47.0000000  0 17       0.000000000000
G02  23116182.694                       -2542.059          15.875                                                                  
G03  20100415.394   105628381.736        -140.460          44.125    20100411.731    78878342.120        -104.899          38.000  
G04  20503462.575   107746454.748        2043.309          40.875    20503463.101    80459954.562        1525.841          40.750  
G06  22906779.916   120375985.892        3580.757          34.750    22906791.889    89891164.169        2674.025          34.125  
G09  22803787.753   119834757.499        3859.343          30.500    22803788.627    89486980.618        2882.254          29.375  
G17  23042950.827   121091531.364       -1412.187          36.125                                                                  
G19  22395082.799   117686909.835         -64.502          36.375                                                                  
G28  23739714.150   124753066.719       -1610.286          35.625                                                                  
G31  22068666.214   115971653.928         321.778          40.125                                                                  
R10  22530201.706   120098516.773        2492.253          24.000  
R02  22316869.740   119087105.706        3862.233          28.875  
R09  22983784.307   122732117.260        -406.024          34.750  
R01  19390735.158   103654501.277        1280.081          33.875  
R24  19745185.268   105586452.911        -876.163          37.875  
R17  21149360.464   113174482.010        3469.577          38.375  
R08  21124373.102   113120082.886       -2350.098          35.875  
E12  24142728.242   126870900.072        1487.084          36.750    24142731.629    94741261.932        1110.391          37.375  
> 2024 06 26 15 00 48.0000000  0 17       0.000000000000
G02  23116764.136                       -2542.496          15.000                                                                  
G03  20100554.786   105629115.548        -140.755          44.500    20100552.031    78878890.095        -105.155          38.250  
G04  20503188.467   107745004.850        2042.794          41.000    20503187.457    80458871.834        1525.530          40.625  
G06  22906216.763   120372998.475        3580.859          35.125    22906220.918    89888933.321        2673.698          34.375  
G09  22803169.247   119831491.278        3859.196          30.500    22803165.236    89484541.580        2881.947          29.500  
G17  23043331.800   121093536.769       -1412.408          36.750                                                                  
G19  22395212.001   117687568.056         -65.376          36.875                                                                  
G28  23740137.353   124755270.489       -1610.919          36.625                                                                  
G31  22068719.542   115971925.629         321.164          39.625                                                                  
R10  22529871.199                        2491.606          23.625  
R02  22316259.471   119083845.910        3861.974          28.875  
R09  22983964.743   122733126.334        -406.854          34.625  
R01  19390603.025   103653824.847        1279.630          33.625  
R24  19745463.983   105587933.035        -877.019          37.750  
R17  21148829.139   113171616.987        3468.651          38.125  
R08  21124931.858   113123037.356       -2350.421          35.125  
E12  24142560.650   126870006.423        1486.568          36.875    24142560.687    94740594.585        1110.102          37.500  
> 2024 06 26 15 00 49.0000000  0 17       0.000000000000
G02  23117317.727                       -2540.297          21.375                                                                  
G03  20100695.993   105629849.740        -141.310          44.500    20100691.563    78879438.343        -105.503          38.125  
G04  20502911.008   107743555.405        2042.283          41.000    20502911.604    80457789.457        1525.079          40.625  
G06  22905645.303   120370011.428        3579.916          35.125    22905653.157    89886702.674        2673.434          34.500  
G09  22802542.505   119828225.249        3858.972          30.125    22802542.472    89482102.683        2881.585          29.875  
G17  23043707.050   121095542.514       -1412.789          35.375                                                                  
G19  22395332.756   117688226.843         -65.910          36.750                                                                  
G28  23740556.856   124757474.669       -1611.094          36.250                                                                  
G31  22068771.055   115972198.022         320.312          39.625                                                                  
R10  22529506.419   120094735.189        2491.734          24.750  
R02  22315651.365   119080586.177        3862.276          29.000  
R09  22984163.885   122734136.199        -407.668          35.000  
R01  19390453.162   103653148.953        1278.853          33.250  
R24  19745745.560   105589413.967        -877.735          37.875  
R17  21148294.465   113168752.554        3468.037          38.625  
R08  21125488.171   113125991.956       -2350.385          35.375  
E12  24142385.938   126869113.092        1486.130          36.875    24142391.001    94739927.464        1110.032          37.500  
> 2024 06 26 15 00 50.0000000  0 17       0.000000000000
G02  23117930.369                       -2541.958          21.625                                                                  
G03  20100835.665   105630583.982        -140.977          44.250    20100831.723    78879986.655        -105.400          38.375  
G04  20502634.876   107742106.089        2042.485          40.875    20502636.169    80456707.176        1525.342          40.875  
G06  22905077.961   120367024.245        3580.288          34.875    22905085.118    89884471.979        2673.796          35.125  
G09  22801917.647   119824959.069        3859.385          29.750    22801920.267    89479663.650        2881.934          29.500  
G17  23044091.932   121097548.365       -1412.822          35.375                                                                  
G19  22395463.074   117688885.922         -65.754          37.500                                                                  
G28  23740979.780   124759679.024       -1611.221          36.375                                                                  
G31  22068819.497   115972470.740         320.430          39.500                                                                  
R10  22529164.674   120092845.114        2491.243          25.625  
R02  22315036.140   119077326.486        3862.411          29.875  
R09  22984358.280   122735146.498        -407.725          35.125  
R01  19390348.182   103652473.154        1279.069          33.000  
R24  19746018.412   105590895.400        -877.875          37.750  
R17  21147764.257   113165888.415        3468.202          39.250  
R08  21126036.737   113128946.487       -2349.851          36.250  
E12  24142221.557   126868219.788        1486.464          37.125    24142220.826    94739260.398        1110.208          37.750  
> 2024 06 26 15 00 51.0000000  0 17       0.000000000000
G02  23118535.682                       -2546.035          19.375                                                                  
G03  20100976.244   105631319.554        -141.691          44.000    20100971.185    78880535.957        -106.002          38.000  
G04  20502359.162   107740658.186        2041.804          40.875    20502361.014    80455625.987        1524.529          41.250  
G06  22904504.477   120364038.246        3579.627          34.875    22904517.846    89882242.203        2673.214          35.750  
G09  22801296.838   119821694.114        3858.605          29.500    22801300.156                        2880.831          27.625  
G17  23044472.695   121099555.509       -1413.344          36.125                                                                  
G19  22395584.319   117689546.709         -67.302          35.375                                                                  
G28  23741400.888   124761884.802       -1612.176          36.500                                                                  
G31  22068876.105   115972745.088         319.472          39.625                                                                  
R10  22528821.323   120090956.723        2489.984          25.875  
R02  22314427.616   119074068.020        3861.568          30.500  
R09  22984550.232   122736158.543        -408.870          35.750  
R01  19390219.190   103651798.820        1278.320          33.625  
R24  19746297.685   105592378.695        -879.237          37.750  
R17  21147225.324   113163025.880        3467.069          38.750  
R08  21126583.068   113131902.127       -2350.328          36.875  
E12  24142047.823   126867327.786        1485.747          37.125    24142051.769    94738594.311        1109.682          37.875  
> 2024 06 26 15 00 52.0000000  0 17       0.000000000000
G02  23119132.480                       -2546.108          16.375                                                                  
G03  20101113.961   105632054.780        -141.761          43.750    20101111.345    78881084.964        -105.929          37.250  
G04  20502083.867   107739210.064        2041.487          41.250    20502085.161    80454544.582        1524.444          41.125  
G06  22903938.601   120361051.834        3579.807          35.125    22903948.829    89880012.093        2673.338          35.500  
G09  22800676.447   119818428.757        3858.904          27.250    22800679.765    89474787.101        2881.705          26.500  
G17  23044857.647   121101562.331       -1413.317          37.500                                                                  
G19  22395707.447   117690207.356         -67.426          34.500                                                                  
G28  23741810.131   124764090.399       -1612.114          34.875                                                                  
G31  22068924.617   115973019.407         319.016          39.125                                                                  
R10  22528459.266   120089068.165        2490.510          25.250  
R02  22313812.879   119070808.893        3861.712          31.250  
R09  22984738.346   122737170.642        -409.327          35.875  
R01  19390099.481   103651124.215        1278.195          34.875  
R24  19746576.400   105593862.033        -879.637          37.250  
R17  21146686.182   113160163.156        3466.830          38.875  
R08  21127134.774   113134857.320       -2350.454          37.750  
E12  24141879.393   126866435.428        1485.702          37.125    24141881.454    94737927.950        1109.502          37.750  
> 2024 06 26 15 00 53.0000000  0 17       0.000000000000
G02  23119731.093                       -2546.841          14.750                                                                  
G03  20101254.958   105632791.590        -142.140          43.875    20101251.226    78881635.170        -106.136          37.625  
G04  20501807.386   107737763.592        2041.051          41.625    20501809.447    80453464.384        1524.346          40.500  
G06  22903372.376   120358066.862        3579.826          35.125    22903380.580    89877783.046        2673.433          35.625  
G09  22800058.989   119815164.676        3859.096          26.125    22800057.001    89472349.636        2881.739          26.750  
G17  23045240.994   121103570.707       -1413.490          37.625                                                                  
G19  22395837.905   117690869.818         -67.936          35.625                                                                  
G28  23742228.029   124766297.574       -1612.415          33.125                                                                  
G31  22068981.086   115973295.605         318.469          39.625                                                                  
R10  22528075.570                        2489.083          24.000  
R02  22313207.147   119067551.223        3861.575          31.500  
R09  22984926.948   122738184.670        -409.848          35.750  
R01  19389965.463   103650451.324        1277.974          35.250  
R24  19746864.468   105595347.437        -880.648          37.375  
R17  21146153.252   113157302.260        3466.440          38.875  
R08  21127693.251   113137813.834       -2350.582          36.750  
E12  24141712.010   126865544.607        1485.608          36.875    24141711.768    94737262.731        1109.260          37.625  
> 2024 06 26 15 00 54.0000000  0 17       0.000000000000
G02  23120329.426                       -2544.733          13.250                                                                  
G03  20101396.026   105633528.160        -142.245          44.250    20101391.317    78882185.218        -106.085          38.125  
G04  20501532.301   107736316.960        2040.885          41.250    20501533.943    80452384.127        1524.215          40.125  
G06  22902807.407   120355081.567        3579.812          35.875    22902811.981    89875553.795        2673.264          35.500  
G09  22799438.110   119811900.150        3858.955          26.875    22799436.262    89469911.861        2881.858          27.750  
G17  23045621.967   121105578.907       -1413.816          37.000                                                                  
G19  22395963.966   117691532.355         -68.436          35.500                                                                  
G28  23742658.980   124768504.596       -1612.585          34.375                                                                  
G31  22069028.411   115973571.843         318.008          39.375                                                                  
R10  22527751.485                        2489.160          24.625  
R02  22312588.432   119064293.140        3861.813          31.000  
R09  22985104.940   122739198.900        -410.425          35.625  
R01  19389828.654   103649778.341        1277.326          35.000  
R24  19747134.039   105596832.974        -880.875          37.250  
R17  21145614.668   113154441.394        3466.032          38.625  
R08  21128243.213   113140769.889       -2350.308          36.375  
E12  24141539.672   126864653.519        1485.460          37.125    24141542.012    94736597.306        1109.548          37.375  
> 2024 06 26 15 00 55.0000000  0 17       0.000000000000
G02                                     -2542.685          16.500                                                                  
G03  20101537.512   105634265.178        -142.207          44.500    20101531.616    78882735.608        -106.244          38.250  
G04  20501256.378   107734870.854        2040.818          41.000    20501258.718    80451304.253        1524.050          40.125  
G06  22902238.460   120352096.656        3579.658          36.125    22902243.802    89873324.811        2673.134          35.250  
G09  22798820.651   119808635.878        3859.163          28.750    22798816.290    89467474.308        2881.648          28.625  
G17  23046002.312   121107587.528       -1413.917          36.875                                                                  
G19  22396087.653   117692195.591         -68.489          34.750                                                                  
G28  23743063.685   124770712.206       -1612.936          33.500                                                                  
G31  22069088.370   115973848.818         317.678          40.250                                                                  
R10  22527386.635   120083409.395        2488.932          25.125  
R02  22311969.996   119061035.331        3861.967          31.125  
R09  22985308.689   122740213.953        -410.838          35.625  
R01  19389716.344   103649105.881        1277.206          35.125  
R24  19747406.751   105598319.387        -881.397          37.500  
R17  21145084.321   113151581.244        3465.638          38.875  
R08  21128803.155   113143726.229       -2350.114          35.750  
E12  24141370.684   126863762.859        1485.316          37.750    24141373.024    94735932.207        1109.264          37.375  
> 2024 06 26 15 00 56.0000000  0 17       0.000000000000
G02  23121521.974                       -2543.444          14.000                                                                  
G03  20101673.135   105635002.503        -142.221          44.250    20101672.056    78883286.209        -106.399          38.375  
G04  20500982.269   107733425.152        2040.657          41.125    20500983.354    80450224.685        1523.628          40.250  
G06  22901674.469   120349111.873        3579.750          36.375    22901675.204    89871095.929        2673.099          35.500  
G09  22798198.934   119805371.811        3859.043          29.625    22798192.340    89465036.856        2881.620          28.000  
G17  23046386.357   121109596.447       -1413.923          37.375                                                                  
G19  22396213.643   117692859.370         -68.937          34.500                                                                  
G28  23743483.607   124772920.188       -1612.769          32.750                                                                  
G31  22069141.837   115974126.406         317.339          40.500                                                                  
R10  22527024.718   120081524.322        2487.861          25.000  
R02  22311361.332   119057777.698        3861.873          31.500  
R09  22985486.751   122741229.676        -411.317          35.250  
R01  19389597.194   103648433.798        1277.260          35.250  
R24  19747692.446   105599806.529        -881.940          37.625  
R17  21144549.576   113148721.581        3465.577          38.375  
R08  21129352.628   113146682.707       -2350.099          35.000  
E12  24141201.487   126862872.456        1485.354          37.625    24141202.850    94735267.313        1109.084          37.375  
> 2024 06 26 15 00 57.0000000  0 17       0.000000000000
G02  23122115.700                       -2540.816          16.250                                                                  
G03  20101816.716   105635740.879        -142.493          43.875    20101812.146    78883837.549        -106.258          38.500  
G04  20500705.648   107731980.560        2040.462          41.375    20500708.478    80449145.925        1523.685          40.250  
G06  22901103.288   120346128.033        3579.836          35.750    22901107.723    89868867.760        2673.038          35.125  
G09  22797576.380   119802108.512        3859.805          29.250    22797571.810    89462599.974        2881.762          26.875  
G17  23046767.539   121111606.410       -1413.942          37.500                                                                  
G19  22396343.263   117693524.471         -69.299          35.250                                                                  
G28  23743911.836   124775129.285       -1613.259          33.375                                                                  
G31  22069194.048   115974405.322         316.944          40.625                                                                  
R10  22526663.987   120079640.460        2488.654          24.250  
R02  22310755.879   119054520.942        3861.907          32.000  
R09  22985675.772   122742246.892        -411.884          34.625  
R01  19389463.455   103647762.891        1276.964          35.375  
R24  19747966.136   105601295.255        -882.736          37.750  
R17  21144015.669   113145863.233        3465.052          38.875  
R08  21129898.890   113149640.006       -2349.977          34.375  
E12  24141031.940   126861983.086        1485.242          37.500    24141034.211    94734603.158        1109.225          37.250  
> 2024 06 26 15 00 58.0000000  0 17       0.000000000000
G02  23122718.990   121510694.157       -2541.031          24.375                                                                  
G03  20101951.013   105636478.951        -143.059          43.250    20101953.563    78884388.727        -106.739          38.250  
G04  20500430.563   107730535.750        2039.860          41.125    20500432.834    80448067.029        1523.237          39.875  
G06  22900534.899   120343143.796        3579.282          35.500    22900540.032    89866639.266        2672.656          35.125  
G09  22796955.501   119798844.783        3859.172          28.875    22796951.001    89460162.796        2881.624          27.750  
G17  23047152.282   121113616.172       -1414.737          37.000                                                                  
G19  22396462.832   117694189.524         -70.135          33.750                                                                  
G28  23744334.899   124777338.212       -1613.980          34.125                                                                  
G31  22069249.330   115974684.249         316.000          39.750                                                                  
R10  22526335.783                        2487.524          22.500  
R02  22310149.030   119051263.709        3861.632          32.375  
R09  22985882.941   122743264.181        -413.125          34.500  
R01  19389351.215   103647091.801        1276.255          35.000  
R24  19748250.714   105602784.077        -883.637          38.250  
R17  21143481.273   113143004.818        3464.213          38.875  
R08  21130453.039   113152596.832       -2350.666          34.000  
E12  24140863.790   126861093.368        1484.769          37.375    24140863.966    94733938.782        1108.723          37.250  
> 2024 06 26 15 00 59.0000000  0 17       0.000000000000
G02  23123315.508   121513831.201       -2541.567          24.625                                                                  
G03  20102095.850   105637217.760        -143.461          43.250    20102093.653    78884940.429        -107.092          38.125  
G04  20500156.036   107729091.785        2039.302          41.125    20500157.958    80446988.722        1522.955          40.000  
G06  22899970.838   120340160.181        3579.116          35.625    22899972.830    89864411.228        2672.709          35.250  
G09  22796339.368   119795581.623        3858.676          28.500    22796330.401    89457725.994        2881.549          29.000  
G17  23047534.651   121115626.619       -1415.053          37.375                                                                  
G19  22396588.055   117694855.630         -70.962          33.875                                                                  
G28  23744757.613   124779547.928       -1614.064          34.500                                                                  
G31  22069298.959   115974964.199         315.355          39.500                                                                  
R10  22525990.478   120075874.211        2486.029          24.000  
R02  22309534.712   119048007.030        3861.324          32.500  
R09  22986061.003   122744282.590        -413.745          34.875  
R01  19389209.519   103646421.587        1275.567          35.125  
R24  19748518.819   105604274.079        -884.252          38.000  
R17  21142951.345   113140147.352        3463.648          38.375  
R08  21131007.398   113155554.188       -2350.866          33.750  
E12  24140694.313   126860204.400        1484.244          37.375    24140694.769    94733274.895        1108.596          37.250  
> 2024 06 26 15 01  0.0000000  0 17       0.000000000000
G02  23123911.677                       -2544.069          21.000                                                                  
G03  20102236.149   105637957.396        -143.243          43.875    20102235.139    78885492.786        -107.129          38.500  
G04  20499881.649   107727648.750        2039.349          41.500    20499883.640    80445911.152        1522.758          40.000  
G06  22899396.586   120337177.339        3579.096          35.125    22899404.511    89862183.779        2672.812          35.375  
G09  22795719.676   119792319.097        3859.246          27.750    22795708.405    89455289.743        2881.582          29.375  
G17  23047911.995   121117637.909       -1414.959          37.000                                                                  
G19  22396709.369   117695522.804         -70.928          33.000                                                                  
G28  23745171.044   124781758.616       -1614.459          34.125                                                                  
G31  22069356.405   115975245.282         315.219          39.750                                                                  
R10  22525648.104   120073992.683        2486.523          24.750  
R02  22308920.953   119044751.023        3861.581          31.875  
R09  22986249.116   122745302.254        -413.953          34.625  
R01  19389094.278   103645752.327        1275.547          35.250  
R24  19748802.699   105605765.387        -884.731          37.625  
R17  21142411.016   113137290.971        3463.497          37.625  
R08  21131554.218   113158512.207       -2350.330          34.625  
E12  24140525.465   126859316.188        1484.667          37.500    24140525.711    94732611.670        1108.637          36.750  
> 2024 06 26 15 01  1.0000000  0 17       0.000000000000
G02  23124505.543                       -2544.950          22.625                                                                  
G03  20102378.683   105638697.105        -143.064          44.125    20102376.626    78886045.165        -107.024          38.875  
G04  20499604.469   107726205.872        2039.391          41.125    20499609.043    80444833.650        1522.897          39.875  
G06  22898832.804   120334194.411        3579.827          35.375    22898836.890    89859956.294        2672.759          34.750  
G09  22795085.046   119789056.552        3859.142          28.000    22795090.318    89452853.363        2881.869          29.500  
G17  23048293.596   121119649.265       -1414.731          37.125                                                                  
G19  22396843.526   117696190.328         -70.863          32.750                                                                  
G28  23745595.364   124783969.393       -1614.155          34.125                                                                  
G31  22069408.825   115975526.725         315.066          40.250                                                                  
R10  22525277.880   120072111.616        2485.755          25.250  
R02  22308317.943   119041494.948        3861.812          31.750  
R09  22986433.041   122746322.285        -413.716          34.250  
R01  19388960.470   103645083.160        1276.106          35.375  
R24  19749078.064   105607257.150        -884.708          37.625  
R17  21141879.901   113134434.860        3463.388          37.750  
R08  21132109.205   113161470.100       -2349.837          35.250  
E12  24140358.012   126858428.053        1484.914          37.750    24140357.002    94731948.472        1108.497          37.000  
> 2024 06 26 15 01  2.0000000  0 17       0.000000000000
G02  23125103.597                       -2541.626          22.500                                                                  
G03  20102518.634   105639437.418        -143.440          43.500    20102517.484    78886598.021        -107.360          38.750  
G04  20499329.873   107724763.649        2039.026          40.625    20499335.005    80443756.683        1522.521          40.000  
G06  22898265.532   120331212.016        3579.143          35.375    22898269.688    89857729.178        2672.546          35.625  
G09  22794466.191   119785794.427        3859.036          29.375    22794468.462    89450417.346        2881.609          30.125  
G17  23048675.826   121121661.250       -1415.294          37.375                                                                  
G19  22396965.189   117696858.687         -71.754          33.250                                                                  
G28  23746011.726   124786180.945       -1614.907          34.125                                                                  
G31  22069464.526   115975809.074         314.369          40.875                                                                  
R10  22524928.945   120070231.340        2485.559          23.750  
R02  22307713.816   119038239.250        3861.737          32.750  
R09  22986623.528   122747343.428        -414.960          34.375  
R01  19388845.787   103644414.753        1275.557          35.750  
R24  19749354.475   105608749.991        -885.684          38.125  
R17  21141346.413   113131579.575        3462.859          37.625  
R08  21132655.397   113164428.346       -2350.104          34.500  
E12  24140190.211   126857540.513        1484.398          37.625    24140188.154    94731285.674        1108.322          37.250  
> 2024 06 26 15 01  3.0000000  0 17       0.000000000000
G02  23125682.945   121526382.099       -2541.638          24.000                                                                  
G03  20102656.700   105640178.367        -143.897          43.250    20102658.901    78887151.265        -107.290          38.625  
G04  20499058.138   107723322.191        2038.434          40.750    20499060.827    80442680.224        1522.289          40.125  
G06  22897700.215   120328230.071        3579.061          35.750    22897701.857    89855502.393        2672.577          35.625  
G09  22793849.710   119782532.744        3858.617          31.125    22793847.094    89447981.646        2881.562          30.625  
G17  23049058.893   121123673.864       -1415.674          37.250                                                                  
G19  22397102.069   117697527.970         -72.381          34.625                                                                  
G28  23746437.232   124788393.155       -1615.072          34.375                                                                  
G31  22069517.994   115976092.378         313.528          41.000                                                                  
R10  22524539.247                        2490.243          21.500  
R02  22307100.406   119034984.142        3861.422          32.750  
R09  22986836.560   122748365.551        -415.669          35.125  
R01  19388714.142   103643747.114        1274.902          35.375  
R24  19749635.494   105610243.930        -886.696          38.625  
R17  21140808.457   113128725.206        3462.134          37.500  
R08  21133203.473   113167387.046       -2350.421          34.250  
E12  24140020.804   126856653.555        1483.929          37.250    24140019.305    94730623.309        1108.096          37.250  
> 2024 06 26 15 01  4.0000000  0 17       0.000000000000
G02  23126282.534                       -2537.080          21.625                                                                  
G03  20102798.046   105640919.133        -144.434          43.125    20102799.898    78887704.439        -107.736          38.875  
G04  20498783.890   107721880.584        2038.005          40.750    20498786.300    80441603.714        1521.899          40.250  
G06  22897132.454   120325247.913        3578.514          36.125    22897135.912    89853275.456        2672.298          35.375  
G09  22793228.063   119779270.631        3858.350          31.250    22793228.100    89445545.722        2881.260          30.750  
G17  23049442.449   121125686.262       -1415.945          37.500                                                                  
G19  22397227.990   117698197.360         -73.050          34.125                                                                  
G28  23746858.690   124790605.296       -1615.718          34.500                                                                  
G31  22069570.763   115976375.741         312.947          40.375                                                                  
R10  22524202.807                        2485.159          22.875  
R02  22306493.347   119031728.619        3861.212          31.875  
R09  22987026.977   122749387.823        -416.476          35.875  
R01  19388586.337   103643079.360        1274.373          35.250  
R24  19749911.207   105611738.048        -887.387          38.625  
R17  21140277.970   113125870.860        3461.591          37.750  
R08  21133760.903   113170345.397       -2350.533          34.625  
E12  24139850.699   126855766.356        1483.620          37.250    24139851.015    94729960.797        1107.882          37.500  
> 2024 06 26 15 01  5.0000000  0 17       0.000000000000
G02  23126881.496                       -2536.022          20.750                                                                  
G03  20102940.719   105641660.842        -144.469          43.125    20102941.175    78888258.347        -107.979          38.750  
G04  20498509.782   107720440.056        2037.785          40.625    20498513.658    80440527.987        1521.818          40.375  
G06  22896566.020   120322266.551        3578.790          36.625    22896567.174    89851049.140        2672.317          35.625  
G09  22792599.785   119776009.304        3858.829          30.125    22792607.081    89443110.331        2881.461          30.625  
G17  23049826.912   121127699.660       -1416.122          38.125                                                                  
G19  22397349.304   117698867.935         -73.482          33.125                                                                  
G28  23747285.522   124792818.497       -1616.064          35.000                                                                  
G31  22069625.138   115976660.367         312.635          40.750                                                                  
R10  22523833.001                        2481.882          22.625  
R02  22305892.222   119028473.841        3861.301          31.625  
R09  22987211.391   122750411.467        -416.752          35.625  
R01  19388470.328   103642412.674        1274.314          35.375  
R24  19750196.274   105613233.605        -887.870          38.625  
R17  21139739.666   113123017.717        3461.326          38.000  
R08  21134321.056   113173304.542       -2350.561          35.000  
E12  24139685.062   126854880.123        1483.484          37.375    24139681.818    94729299.013        1107.794          37.250  
> 2024 06 26 15 01  6.0000000  0 17       0.000000000000
G02  23127476.549                       -2540.452          22.125                                                                  
G03  20103081.927   105642402.773        -144.431          43.250    20103081.894    78888812.367        -107.722          38.625  
G04  20498235.185   107718999.788        2037.863          40.625    20498238.293    80439452.484        1521.670          40.125  
G06  22895998.050   120319285.351        3578.638          36.375    22895999.762    89848822.859        2672.593          36.000  
G09  22791980.930   119772748.051        3858.952          30.125    22791985.853    89440674.886        2882.195          30.375  
G17  23050210.049   121129713.279       -1416.110          38.875                                                                  
G19  22397474.736   117699538.958         -73.283          33.250                                                                  
G28  23747703.769   124795031.957       -1615.909          34.875                                                                  
G31  22069681.328   115976945.525         312.170          41.500                                                                  
R10  22523518.060   120062717.835        2483.560          23.250  
R02  22305282.302   119025219.134        3861.618          31.875  
R09  22987409.067   122751435.763        -417.410          35.750  
R01  19388345.454   103641746.346        1274.106          35.125  
R24  19750471.848   105614729.839        -888.427          38.500  
R17  21139212.460   113120165.009        3461.226          38.500  
R08  21134867.806   113176263.675       -2350.050          34.625  
E12  24139514.189   126853994.033        1483.716          37.000    24139513.388    94728637.295        1108.052          37.500  
> 2024 06 26 15 01  7.0000000  0 17       0.000000000000
G02  23128075.370   121538938.751       -2541.828          23.375                                                                  
G03  20103223.762   105643145.001        -144.763          43.125    20103223.590    78889366.641        -108.003          38.875  
G04  20497960.449   107717559.934        2037.283          40.375    20497964.325    80438377.278        1521.377          40.000  
G06  22895433.361   120316304.320        3578.570          37.750    22895432.700    89846596.768        2672.577          36.500  
G09  22791366.333   119769486.805        3858.743          31.250    22791365.184    89438239.628        2881.070          30.750  
G17  23050595.350   121131727.211       -1416.503          38.375                                                                  
G19  22397608.125   117700210.614         -74.221          34.250                                                                  
G28  23748128.857   124797245.848       -1616.639          36.250                                                                  
G31  22069735.005   115977231.299         311.491          41.500                                                                  
R10  22523158.376                        2486.262          22.500  
R02  22304662.609   119021964.573        3861.405          31.250  
R09  22987600.391   122752460.741        -417.972          36.625  
R01  19388201.245   103641080.379        1273.689          34.875  
R24  19750751.819   105616226.773        -889.137          39.000  
R17  21138680.158   113117312.822        3460.541          38.625  
R08  21135424.677   113179222.916       -2350.462          35.250  
E12  24139348.482   126853108.243        1483.398          37.750    24139344.470    94727975.884        1107.665          37.625  
> 2024 06 26 15 01  8.0000000  0 17       0.000000000000
G02  23128668.608                       -2541.618          23.625                                                                  
G03  20103366.784   105643887.415        -144.461          43.125    20103365.774    78889921.061        -107.887          38.875  
G04  20497688.923   107716120.336        2037.583          40.625    20497690.426    80437302.283        1521.388          40.375  
G06  22894864.902   120313323.317        3579.150          37.875    22894864.800    89844370.779        2672.417          36.250  
G09  22790744.756   119766225.671        3859.475          31.875    22790744.305    89435804.361        2881.886          31.625  
G17  23050979.395   121133741.289       -1416.110          37.000                                                                  
G19  22397737.606   117700882.671         -74.060          35.125                                                                  
G28  23748550.175   124799459.970       -1616.313          36.375                                                                  
G31  22069789.449   115977517.492         311.556          41.125                                                                  
R10  22522807.207                        2482.234          23.000  
R02  22304052.549   119018710.016        3862.023          30.250  
R09  22987791.506   122753486.283        -417.980          36.500  
R01  19388087.260   103640414.712        1273.791          34.625  
R24  19751034.024   105617724.324        -889.266          39.250  
R17  21138148.834   113114461.064        3460.660          38.500  
R08  21135974.639   113182182.108       -2349.593          35.750  
E12  24139177.958   126852222.625        1483.722          38.125    24139176.250    94727314.555        1107.811          37.750  
> 2024 06 26 15 01  9.0000000  0 17       0.000000000000
G02  23129263.731   121545218.151       -2541.415          25.000                                                                  
G03  20103503.594   105644631.308        -144.918          42.875    20103508.307    78890476.562        -108.485          39.125  
G04  20497412.511   107714682.309        2037.017          40.250    20497417.086    80436228.416        1520.982          40.500  
G06  22894298.677   120310343.730        3578.652          37.500    22894297.947    89842145.722        2672.310          36.125  
G09  22790124.226   119762965.921        3858.719          31.375    22790123.914    89433370.057        2881.558          31.750  
G17  23051363.160   121135756.816       -1416.551          37.625                                                                  
G19  22397868.901   117701556.456         -74.781          35.875                                                                  
G28  23748964.234   124801675.658       -1616.900          34.500                                                                  
G31  22069839.217   115977805.491         310.848          40.500                                                                  
R10  22522443.545   120057090.481        2482.195          23.750  
R02  22303441.024   119015456.827        3861.361          30.250  
R09  22987978.014   122754513.718        -418.963          35.875  
R01  19387966.016   103639750.608        1273.484          34.750  
R24  19751314.345   105619223.797        -890.181          39.375  
R17  21137613.112   113111611.094        3459.829          38.000  
R08  21136523.134   113185142.698       -2350.215          35.500  
E12  24139010.017   126851338.433        1483.249          38.000    24139008.030    94726654.261        1107.470          37.750  
> 2024 06 26 15 01 10.0000000  0 17       0.000000000000
G02  23129859.202                       -2540.660          23.625                                                                  
G03  20103649.338   105645374.866        -144.911          42.500    20103648.956    78891031.790        -108.279          39.500  
G04  20497138.403   107713244.020        2036.817          40.625    20497143.536    80435154.377        1520.859          40.875  
G06  22893730.638   120307363.698        3578.509          37.500    22893729.767    89839920.383        2672.156          35.125  
G09  22789505.581   119759705.583        3858.977          33.625    22789505.897    89430935.442        2881.409          31.875  
G17  23051748.810   121137772.036       -1416.632          37.750                                                                  
G19  22397991.402   117702230.233         -75.254          33.625                                                                  
G28  23749386.739   124803891.094       -1616.899          34.750                                                                  
G31  22069896.524   115978093.465         310.422          40.875                                                                  
R10  22522110.175                        2482.592          23.875  
R02  22302833.058   119012203.111        3861.371          30.375  
R09  22988173.108   122755541.205        -419.526          36.250  
R01  19387839.607   103639086.320        1273.036          35.000  
R24  19751593.897   105620723.376        -890.701          39.875  
R17  21137079.414   113108760.991        3459.438          38.500  
R08  21137081.332   113188102.657       -2350.012          34.875  
E12  24138840.261   126850453.894        1483.192          38.250    24138840.298    94725993.711        1107.548          37.875  
> 2024 06 26 15 01 11.0000000  0 17       0.000000000000
G02  23130463.189   121551497.531       -2541.172          23.750                                                                  
G03  20103787.264   105646118.427        -145.778          42.875    20103790.722    78891587.059        -108.746          39.375  
G04  20496864.784   107711805.846        2035.987          40.625    20496869.846    80434080.384        1520.389          41.375  
G06  22893166.088   120304383.543        3578.028          37.750    22893163.263    89837694.922        2671.955          35.500  
G09  22788882.398   119756445.124        3858.699          33.000    22788885.716    89428500.672        2881.283          30.875  
G17  23052133.483   121139787.242       -1417.238          38.500                                                                  
G19  22398116.625   117702904.253         -76.156          33.000                                                                  
G28  23749810.360   124806106.647       -1617.660          35.250                                                                  
G31  22069954.319   115978381.691         309.587          40.500                                                                  
R10  22521750.352   120053341.887        2480.758          24.125  
R02  22302233.608   119008949.144        3861.269          31.000  
R09  22988361.640   122756569.039        -420.556          35.875  
R01  19387718.921   103638422.055        1272.395          35.125  
R24  19751880.290   105622223.414        -891.832          39.625  
R17  21136545.856   113105911.053        3458.806          38.875  
R08  21137647.696   113191062.400       -2350.501          35.125  
E12  24138672.390   126849569.305        1482.500          37.750    24138671.240    94725333.129        1107.056          37.750  
> 2024 06 26 15 01 12.0000000  0 17       0.000000000000
G02  23131058.451                       -2543.367          21.125                                                                  
G03  20103930.566   105646862.652        -145.584          42.750    20103932.069    78892142.809        -108.578          39.750  
G04  20496591.583   107710368.424        2035.996          40.625    20496596.297    80433006.997        1520.318          42.000  
G06  22892599.305   120301403.974        3578.245          37.750    22892596.829    89835469.893        2672.210          36.000  
G09  22788258.727   119753185.138        3858.888          31.750    22788262.743    89426066.273        2881.533          30.625  
G17  23052512.920   121141803.187       -1417.380          38.375                                                                  
G19  22398245.547   117703579.181         -76.380          32.500                                                                  
G28  23750236.146   124808322.952       -1617.678          36.125                                                                  
G31  22070005.064   115978670.946         309.158          40.750                                                                  
R10  22521386.410   120051468.802        2479.960          25.125  
R02  22301625.223   119005695.803        3861.299          31.625  
R09  22988561.829   122757597.960        -420.806          36.250  
R01  19387595.513   103637758.630        1272.427          34.750  
R24  19752154.887   105623724.606        -892.300          39.375  
R17  21136016.625   113103062.065        3458.448          38.750  
R08  21138191.724   113194022.703       -2350.268          34.625  
E12  24138503.960   126848685.382        1482.569          37.750    24138503.579    94724673.058        1107.277          37.875  
> 2024 06 26 15 01 13.0000000  0 17       0.000000000000
G02  23131660.135   121557778.621       -2541.644          23.875                                                                  
G03  20104070.935   105647607.521        -145.795          42.625    20104074.811    78892699.054        -109.059          39.750  
G04  20496320.057   107708931.698        2035.704          40.750    20496322.747    80431934.120        1520.032          41.750  
G06  22892030.497   120298424.907        3578.220          37.750    22892029.487    89833245.299        2671.813          36.375  
G09  22787645.875   119749925.565        3858.555          32.125    22787644.377    89423632.213        2881.314          31.875  
G17  23052897.523   121143819.726       -1417.619          37.750                                                                  
G19  22398371.258   117704255.083         -77.374          32.500                                                                  
G28  23750653.764   124810540.000       -1618.135          36.500                                                                  
G31  22070059.299   115978961.076         308.727          40.125                                                                  
R10  22521044.036   120049596.594        2479.730          26.250  
R02  22301013.348   119002442.859        3861.374          31.875  
R09  22988746.382   122758627.860        -421.561          35.875  
R01  19387472.942   103637095.975        1271.673          34.875  
R24  19752435.347   105625226.839        -893.011          39.750  
R17  21135485.580   113100213.943        3457.902          38.375  
R08  21138737.288   113196983.419       -2350.083          33.625  
E12  24138338.113   126847802.055        1482.301          38.000    24138335.009    94724013.454        1106.749          38.125  
> 2024 06 26 15 01 14.0000000  0 17       0.000000000000
G02  23132259.864                       -2540.618          22.625                                                                  
G03  20104214.236   105648352.443        -145.983          42.750    20104215.320    78893255.320        -109.070          39.750  
G04  20496043.367   107707495.142        2035.483          40.000    20496049.337    80430861.347        1520.082          41.250  
G06  22891462.946   120295445.801        3578.294          37.750    22891463.890    89831020.621        2671.938          36.250  
G09  22787023.391   119746665.969        3858.478          33.625    22787022.870    89421198.048        2881.613          34.375  
G17  23053277.380   121145836.239       -1417.564          37.000                                                                  
G19  22398502.623   117704931.263         -77.361          32.875                                                                  
G28  23751078.154   124812757.202       -1618.169          36.000                                                                  
G31  22070116.327   115979251.580         308.545          40.625                                                                  
R10  22520702.082   120047724.761        2479.368          27.000  
R02  22300402.800   118999189.771        3861.266          31.375  
R09  22988956.972   122759658.210        -421.873          36.375  
R01  19387333.480   103636433.430        1271.651          34.875  
R24  19752719.855   105626729.527        -893.278          40.000  
R17  21134953.348   113097366.158        3457.573          38.500  
R08  21139291.856   113199944.018       -2350.402          33.375  
E12  24138167.799   126846918.755        1482.310          38.125    24138167.348    94723353.821        1106.955          37.500  
> 2024 06 26 15 01 15.0000000  0 17       0.000000000000
G02  23132849.751                       -2544.181          21.875                                                                  
G03  20104356.351   105649098.390        -146.371          43.125    20104358.203    78893812.352        -109.416          40.000  
G04  20495773.726   107706059.721        2035.077          40.625    20495776.136    80429789.431        1519.700          40.750  
G06  22890898.187   120292467.587        3577.953          38.000    22890895.432    89828796.659        2671.654          36.375  
G09  22786404.397   119743407.204        3858.566          35.000    22786403.177    89418764.585        2881.500          36.500  
G17  23053663.867   121147853.844       -1417.863          38.625                                                                  
G19  22398632.593   117705608.647         -77.499          32.375                                                                  
G28  23751498.774   124814975.440       -1618.472          35.125                                                                  
G31  22070168.817   115979543.408         307.759          39.750                                                                  
R10  22520343.375   120045854.314        2478.410          25.750  
R02  22299779.268   118995937.581        3861.094          30.500  
R09  22989138.384   122760689.991        -422.584          36.875  
R01  19387219.076   103635772.019        1271.382          34.625  
R24  19753001.921   105628233.729        -894.148          40.375  
R17  21134418.115   113094519.601        3457.214          38.125  
R08  21139840.352   113202905.319       -2350.147          33.625  
E12  24138001.115   126846036.431        1482.107          37.875    24138000.523    94722694.968        1106.692          37.875  
> 2024 06 26 15 01 16.0000000  0 17       0.000000000000
G02  23133458.625   121567200.621       -2541.716          23.375                                                                  
G03  20104498.815   105649844.003        -146.312          43.250    20104499.619    78894369.147        -109.330          39.750  
G04  20495501.502   107704624.006        2034.902          40.500    20495502.167    80428717.310        1519.485          39.875  
G06  22890330.845   120289488.970        3577.802          37.250    22890330.393    89826572.370        2671.717          36.500  
G09  22785782.191   119740147.877        3858.746          36.375    22785783.136    89416330.735        2881.247          36.500  
G17  23054046.306   121149871.168       -1417.943          38.375                                                                  
G19  22398761.654   117706286.041         -78.358          34.125                                                                  
G28  23751922.465   124817193.504       -1618.805          36.250                                                                  
G31  22070222.773   115979835.221         307.455          38.500                                                                  
R10  22519985.715   120043983.822        2478.235          25.000  
R02  22299169.767   118992684.927        3860.835          29.500  
R09  22989336.549   122761721.882        -423.370          36.750  
R01  19387097.832   103635110.406        1271.148          34.500  
R24  19753286.290   105629738.042        -894.609          40.375  
R17  21133880.718   113091672.924        3457.031          38.000  
R08  21140389.754   113205866.188       -2350.135          34.250  
E12  24137833.872   126845153.793        1482.035          37.875    24137831.535    94722035.850        1106.657          38.000  
> 2024 06 26 15 01 17.0000000  0 17       0.000000000000
G02  23134062.542   121570342.276       -2541.476          24.875                                                                  
G03  20104635.624   105650590.597        -146.463          42.500    20104642.921    78894926.653        -109.408          40.000  
G04  20495226.417   107703189.370        2034.741          40.875    20495229.734    80427645.961        1519.393          39.375  
G06  22889763.084   120286511.194        3577.822          36.750    22889762.563    89824348.731        2671.634          36.750  
G09  22785162.150   119736889.431        3858.475          36.625    22785163.025    89413897.436        2881.439          36.500  
G17  23054429.932   121151889.409       -1418.041          38.625                                                                  
G19  22398893.997   117706964.705         -78.849          34.500                                                                  
G28  23752340.573   124819412.633       -1619.068          35.500                                                                  
G31  22070280.568   115980128.298         306.949          38.875                                                                  
R10  22519636.920   120042114.644        2478.042          25.875  
R02  22298544.630   118989432.918        3861.770          29.000  
R09  22989529.967   122762755.109        -423.792          36.375  
R01  19386976.728   103634449.866        1271.008          35.125  
R24  19753568.844   105631243.797        -895.229          40.125  
R17  21133356.653   113088827.497        3456.400          38.125  
R08  21140933.573   113208827.863       -2350.104          34.125  
E12  24137664.674   126844272.091        1481.754          37.875    24137663.664    94721377.426        1106.467          38.125  
> 2024 06 26 15 01 18.0000000  0 17       0.000000000000
G02  23134668.553                       -2537.437          22.125                                                                  
G03  20104779.624   105651337.237        -147.057          42.875    20104784.058    78895484.208        -109.763          40.250  
G04  20494954.612   107701754.880        2033.862          40.500    20494956.185    80426574.771        1519.028          40.000  
G06  22889192.951   120283533.386        3577.450          36.625    22889196.966    89822125.036        2671.573          36.875  
G09  22784541.620   119733630.810        3858.260          36.250    22784543.193    89411464.086        2881.090          36.750  
G17  23054816.210   121153907.784       -1418.984          39.000                                                                  
G19  22399016.567   117707643.682         -79.654          33.000                                                                  
G28  23752766.986   124821631.895       -1619.980          36.500                                                                  
G31  22070338.573   115980421.752         305.775          38.750                                                                  
R10  22519276.468   120040245.885        2476.707          25.750  
R02  22297928.148   118986180.992        3860.863          27.000  
R09  22989723.315   122763788.818        -424.856          35.500  
R01  19386848.503   103633789.526        1270.221          35.375  
R24  19753842.463   105632750.067        -896.615          39.625  
R17  21132824.141   113085982.382        3455.448          38.125  
R08  21141496.517   113211789.407       -2350.442          34.250  
E12  24137496.594   126843390.409        1481.182          37.625    24137495.723    94720719.029        1106.190          37.750  
> 2024 06 26 15 01 19.0000000  0 17       0.000000000000
G02  23135253.904                       -2541.676          23.125                                                                  
G03  20104923.413   105652084.593        -146.772          42.625    20104928.057    78896042.304        -109.588          40.500  
G04  20494681.481   107700321.153        2034.311          40.750    20494683.682    80425504.146        1519.113          40.125  
G06  22888624.911   120280556.195        3578.036          36.750    22888629.206    89819901.792        2671.904          37.125  
G09  22783923.533   119730372.722        3858.783          37.125    22783922.872    89409031.093        2881.465          36.750  
G17  23055202.558   121155926.822       -1418.409          38.750                                                                  
G19  22399154.145   117708323.619         -79.562          34.250                                                                  
G28  23753185.373   124823851.950       -1619.558          35.500                                                                  
G31  22070392.180   115980716.177         306.059          38.875                                                                  
R10  22518933.048   120038378.031        2477.370          24.500  
R02  22297321.160   118982929.626        3861.378          28.125  
R09  22989907.031   122764823.575        -424.528          35.125  
R01  19386740.033   103633129.932        1270.624          35.375  
R24  19754128.647   105634257.368        -896.359          39.500  
R17  21132295.330   113083138.165        3455.726          38.500  
R08  21142056.530   113214751.456       -2349.886          34.375  
E12  24137328.234   126842509.391        1481.710          37.500    24137328.201    94720061.124        1106.532          37.750  
> 2024 06 26 15 01 20.0000000  0 17       0.000000000000
G02  23135838.416   121579768.571       -2542.076          23.750                                                                  
G03  20105065.319   105652832.627        -147.280          42.625    20105068.915    78896600.887        -109.943          40.125  
G04  20494408.978   107698888.205        2033.625          40.375    20494410.551    80424434.097        1518.702          40.000  
G06  22888060.710   120277579.555        3577.496          37.000    22888063.539    89817678.976        2671.585          37.000  
G09  22783305.655   119727115.170        3858.212          37.125    22783303.110    89406598.480        2881.389          36.250  
G17  23055584.788   121157946.500       -1419.016          38.250                                                                  
G19  22399283.067   117709004.487         -80.474          33.375                                                                  
G28  23753599.851   124826072.808       -1620.245          34.375                                                                  
G31  22070448.718   115981011.565         305.217          38.750                                                                  
R10  22518590.535                        2475.691          24.250  
R02  22296733.296   118979678.696        3861.073          29.500  
R09  22990105.685   122765859.431        -425.664          35.250  
R01  19386614.251   103632471.142        1269.985          35.625  
R24  19754412.946   105635765.791        -897.436          40.250  
R17  21131758.980   113080294.879        3454.890          37.875  
R08  21142616.961   113217713.958       -2350.385          34.750  
E12  24137160.781   126841629.056        1481.010          37.625    24137160.469    94719403.703        1106.160          37.750  
> 2024 06 26 15 01 21.0000000  0 17       0.000000000000
G02  23136429.490                       -2545.423          23.000                                                                  
G03  20105206.246   105653581.239        -147.633          42.375    20105211.588    78897159.915        -110.261          40.250  
G04  20494136.266   107697455.929        2033.194          39.750    20494137.909    80423364.534        1518.325          40.000  
G06  22887494.834   120274603.417        3577.089          37.500    22887496.477    89815456.531        2671.160          36.875  
G09  22782682.543   119723857.998        3858.177          37.375    22782683.138    89404166.208        2881.045          36.625  
G17  23055971.205   121159966.794       -1419.354          37.750                                                                  
G19  22399414.153   117709686.215         -81.008          33.875                                                                  
G28  23754031.290   124828294.269       -1620.769          34.375                                                                  
G31  22070505.606   115981307.842         304.463          39.250                                                                  
R10  22518229.455   120034645.432        2474.701          25.375  
R02  22296131.054   118976428.159        3860.604          29.250  
R09  22990297.079   122766896.250        -426.311          35.500  
R01  19386483.933   103631813.081        1269.215          35.000  
R24  19754692.708   105637275.267        -898.187          40.125  
R17  21131231.075   113077452.426        3454.208          38.125  
R08  21143160.222   113220676.870       -2350.579          35.125  
E12  24136995.214   126840749.241        1480.601          37.875    24136993.575    94718746.734        1105.673          38.125  
> 2024 06 26 15 01 22.0000000  0 17       0.000000000000
G02  23137023.496                       -2544.810          18.375                                                                  
G03  20105350.036   105654330.769        -147.415          42.500    20105354.052    78897719.636        -110.043          40.125  
G04  20493862.647   107696024.676        2033.307          39.875    20493865.895    80422295.747        1518.294          39.875  
G06  22886928.191   120271628.045        3577.464          37.375    22886929.903    89813234.683        2671.606          37.000  
G09  22782064.595   119720601.571        3858.708          37.750    22782062.608    89401734.467        2881.344          36.375  
G17  23056358.182   121161988.020       -1419.078          38.125                                                                  
G19  22399535.956   117710369.109         -80.944          34.250                                                                  
G28  23754455.819   124830516.740       -1620.524          34.125                                                                  
G31  22070561.098   115981605.328         304.495          39.375                                                                  
R10  22517901.251   120032780.704        2475.566          26.000  
R02  22295512.269   118973178.340        3861.239          28.250  
R09  22990488.961   122767934.388        -426.419          35.875  
R01  19386363.457   103631155.993        1269.676          35.375  
R24  19754977.635   105638786.143        -898.396          40.750  
R17  21130694.795   113074611.155        3454.238          38.000  
R08  21143725.469   113223640.538       -2350.057          36.125  
E12  24136826.993   126839870.331        1480.925          38.000    24136826.332    94718090.408        1105.983          38.125  
> 2024 06 26 15 01 23.0000000  0 17       0.000000000000
G02  23137623.993                       -2544.117          19.250                                                                  
G03  20105491.523   105655079.920        -147.264          42.375    20105495.957    78898279.070        -110.074          39.750  
G04  20493587.282   107694593.112        2033.261          40.250    20493594.020    80421226.726        1518.378          40.125  
G06  22886363.920   120268652.197        3577.546          37.250    22886365.074    89811012.462        2671.746          37.125  
G09  22781442.181   119717344.600        3858.892          37.000    22781443.753    89399302.335        2881.428          36.000  
G17  23056741.039   121164008.859       -1419.120          37.500                                                                  
G19  22399676.046   117711051.863         -80.848          34.000                                                                  
G28  23754870.576   124832738.961       -1620.715          33.000                                                                  
G31  22070623.220   115981902.747         304.212          40.375                                                                  
R10  22517538.775   120030915.983        2475.168          25.750  
R02  22294909.050   118969927.963        3861.281          26.125  
R09  22990681.751   122768972.525        -427.050          36.000  
R01  19386228.462   103630498.691        1269.453          35.375  
R24  19755257.676   105640297.077        -898.752          40.500  
R17  21130172.056   113071769.748        3454.078          38.250  
R08  21144274.104   113226603.592       -2349.708          36.000  
E12  24136659.332   126838991.011        1481.215          38.125    24136658.880    94717433.792        1105.863          38.000  
> 2024 06 26 15 01 24.0000000  0 17       0.000000000000
G02  23138223.094                       -2542.642          23.125                                                                  
G03  20105631.543   105655829.618        -147.972          41.875    20105639.607    78898838.908        -110.529          39.875  
G04  20493316.385   107693162.176        2032.718          40.125    20493321.587    80420158.169        1517.736          40.500  
G06  22885799.370   120265676.792        3577.137          36.625    22885798.081    89808790.575        2671.142          37.375  
G09  22780824.094   119714087.998        3858.577          36.000    22780823.363    89396870.479        2881.173          36.125  
G17  23057126.061   121166030.213       -1419.593          37.375                                                                  
G19  22399804.968   117711735.516         -82.128          35.500                                                                  
G28  23755298.944   124834961.775       -1621.155          34.250                                                                  
G31  22070680.318   115982200.973         303.443          40.625                                                                  
R10  22517188.514   120029052.125        2474.165          25.625  
R02  22294290.544   118966677.984        3861.264          25.125  
R09  22990878.101   122770011.597        -427.864          36.625  
R01  19386108.125   103629842.057        1268.722          34.750  
R24  19755540.788   105641808.983        -899.648          40.250  
R17  21129640.383   113068929.145        3453.187          38.125  
R08  21144827.625   113229566.972       -2350.096          35.750  
E12  24136491.600   126838112.202        1480.757          37.750    24136490.939    94716777.523        1105.652          37.875  
> 2024 06 26 15 01 25.0000000  0 17       0.000000000000
G02  23138832.944   121595491.033       -2542.295          24.875                                                                  
G03  20105776.799   105656590.480        -148.491          41.625    20105784.514    78899407.069        -110.827          39.750  
G04  20493047.651   107691742.498        2032.040          40.250    20493051.946    80419098.001        1517.399          40.500  
G06  22885232.098   120262712.489        3576.737          36.500    22885233.950    89806576.943        2670.916          37.125  
G09  22780203.703   119710842.414        3858.108          35.875    22780207.021    89394446.779        2881.155          36.750  
G17  23057510.734   121168062.719       -1420.088          38.125                                                                  
G19  22399941.848   117712430.476         -82.800          36.500                                                                  
G28  23755729.545   124837195.846       -1621.881          34.750                                                                  
G31  22070739.718   115982510.666         302.484          41.125                                                                  
R10  22516830.854   120027199.873        2473.242          24.750  
R02  22293663.802   118963439.214        3860.682          25.875  
R09  22991082.199   122771062.418        -428.760          36.750  
R01  19385999.654   103629196.840        1268.053          34.875  
R24  19755828.647   105643332.690        -900.761          40.125  
R17  21129113.316   113066100.059        3452.573          37.875  
R08  21145385.963   113232541.552       -2350.506          36.250  
E12  24136325.334   126837244.552        1480.061          37.375    24136325.860    94716129.589        1105.296          37.875  
> 2024 06 26 15 01 26.0000000  0 17       0.000000000000
G02  23139442.097   121598643.970       -2542.312          27.000                                                                  
G03  20105922.962   105657349.798        -148.686          42.000    20105928.583    78899974.101        -111.069          40.000  
G04  20492779.755   107690321.363        2031.728          40.375    20492781.188    80418036.785        1517.074          40.375  
G06  22884665.245   120259746.470        3576.823          36.625    22884669.121    89804362.088        2671.020          37.125  
G09  22779588.967   119707595.110        3857.945          36.375    22779588.026    89392021.858        2880.937          37.375  
G17  23057896.523   121170093.745       -1420.556          38.500                                                                  
G19  22400072.864   117713124.237         -83.134          36.625                                                                  
G28  23756153.516   124839428.488       -1621.969          34.875                                                                  
G31  22070797.374   115982819.137         301.995          41.375                                                                  
R10  22516481.430   120025346.487        2472.437          25.125  
R02  22293072.030   118960198.813        3860.282          27.000  
R09  22991284.342   122772112.090        -429.376          36.750  
R01  19385872.756   103628550.172        1267.729          34.375  
R24  19756115.389   105644855.272        -901.601          40.000  
R17  21128590.577   113063269.632        3452.185          38.250  
R08  21145936.971   113235514.394       -2350.429          36.125  
E12  24136159.697   126836375.323        1479.950          37.750    24136160.571    94715480.512        1104.976          37.750  
> 2024 06 26 15 01 27.0000000  0 17       0.000000000000
G02  23140041.686   121601795.007       -2541.989          25.500                                                                  
G03  20106069.963   105658107.345        -148.402          42.750    20106072.792    78900539.824        -110.916          40.000  
G04  20492510.184   107688898.557        2031.813          40.750    20492510.012    80416974.288        1517.379          40.125  
G06  22884104.465   120256778.656        3576.948          36.625    22884104.502    89802145.884        2670.913          37.375  
G09  22778962.922   119704345.883        3858.270          36.750    22778969.870    89389595.483        2881.250          37.000  
G17  23058287.548   121172122.973       -1420.120          38.500                                                                  
G19  22400199.483   117713816.460         -83.110          36.000                                                                  
G28  23756576.998   124841659.456       -1621.885          34.500                                                                  
G31  22070857.263   115983126.122         301.965          41.250                                                                  
R10  22516155.739   120023491.621        2472.181          26.250  
R02  22292454.850   118956956.287        3861.041          27.250  
R09  22991476.504   122773160.294        -429.320          36.375  
R01  19385753.606   103627901.835        1267.513          34.250  
R24  19756398.013   105646376.459        -901.631          39.875  
R17  21128046.200   113060437.643        3452.231          37.875  
R08  21146492.028   113238485.202       -2349.978          35.625  
E12  24135997.270   126835504.317        1480.111          37.750    24135995.073    94714830.086        1105.176          37.750  
> 2024 06 26 15 01 28.0000000  0 17       0.000000000000
G02  23140636.599   121604944.752       -2541.080          25.000                                                                  
G03  20106212.147   105658863.812        -148.323          42.625    20106217.349    78901104.697        -110.890          40.125  
G04  20492239.566   107687474.702        2031.877          41.000    20492240.511    80415911.034        1517.287          40.375  
G06  22883536.425   120253809.561        3577.313          36.625    22883540.022    89799928.678        2671.153          37.500  
G09  22778353.351   119701095.313        3858.883          36.750    22778351.294    89387168.154        2881.414          36.500  
G17  23058672.919   121174151.106       -1420.047          39.000                                                                  
G19  22400327.009   117714507.851         -83.390          34.875                                                                  
G28  23756997.828   124843889.383       -1621.879          35.000                                                                  
G31  22070917.012   115983432.330         301.648          41.250                                                                  
R10  22515804.571   120021635.849        2471.848          25.875  
R02  22291831.528   118953712.500        3861.306          26.500  
R09  22991670.969   122774207.760        -429.673          37.250  
R01  19385629.500   103627252.407        1267.740          34.750  
R24  19756676.937   105647896.940        -901.910          39.500  
R17  21127526.672   113057604.779        3451.999          38.375  
R08  21147041.291   113241454.671       -2349.683          35.875  
E12  24135830.655   126834632.158        1480.303          37.875    24135828.459    94714178.778        1105.400          37.500  
> 2024 06 26 15 01 29.0000000  0 17       0.000000000000
G02  23141234.235                       -2541.967          23.875                                                                  
G03  20106359.287   105659618.296        -148.790          42.625    20106359.883    78901668.091        -111.129          39.875  
G04  20491965.877   107686048.976        2031.486          40.875    20491968.496    80414846.370        1516.948          40.250  
G06  22882974.179   120250838.436        3576.810          37.125    22882974.355    89797709.952        2670.991          37.625  
G09  22777731.774   119697842.635        3858.709          35.625    22777733.067    89384739.195        2881.389          36.625  
G17  23059059.546   121176177.276       -1420.449          39.250                                                                  
G19  22400466.541   117715197.536         -84.088          34.750                                                                  
G28  23757425.358   124846117.419       -1622.408          35.750                                                                  
G31  22070974.458   115983736.817         301.126          41.500                                                                  
R10  22515456.823                        2471.621          26.000  
R02  22291235.777   118950466.523        3861.246          26.875  
R09  22991868.646   122775253.606        -430.429          37.250  
R01  19385510.280   103626601.081        1267.452          34.750  
R24  19756957.956   105649415.897        -902.793          39.125  
R17  21126992.834   113054770.211        3451.154          38.750  
R08  21147591.811   113244421.942       -2350.044          36.000  
E12  24135662.854   126833758.000        1480.051          38.000    24135662.542    94713526.021        1104.941          37.125  
> 2024 06 26 15 01 30.0000000  0 17       0.000000000000
G02  23141834.522   121611238.791       -2542.612          25.375                                                                  
G03  20106498.400   105660372.124        -149.537          42.875    20106502.835    78902231.048        -111.748          40.125  
G04  20491697.841   107684622.726        2030.469          41.125    20491697.180    80413781.324        1516.114          40.125  
G06  22882406.139   120247866.527        3576.102          37.000    22882408.410    89795490.705        2670.467          37.625  
G09  22777113.129   119694589.146        3857.740          34.875    22777112.747    89382309.639        2880.872          36.750  
G17  23059444.079   121178202.814       -1421.328          39.750                                                                  
G19  22400595.393   117715886.925         -85.344          34.000                                                                  
G28  23757854.913   124848344.965       -1623.180          36.000                                                                  
G31  22071034.278   115984041.000         299.863          41.375                                                                  
R10  22515113.612   120017920.536        2470.555          26.000  
R02  22290626.904   118947219.816        3860.449          27.250  
R09  22992056.340   122776299.197        -431.718          36.750  
R01  19385386.942   103625949.237        1266.421          34.750  
R24  19757237.927   105650934.629        -904.075          39.000  
R17  21126465.558   113051935.189        3450.141          38.375  
R08  21148142.330   113247388.352       -2350.614          35.750  
E12  24135496.797   126832883.204        1479.014          37.750    24135496.136    94712872.749        1104.474          37.250  
> 2024 06 26 15 01 31.0000000  0 17       0.000000000000
G02  23142431.669   121614385.634       -2541.821          24.750                                                                  
G03  20106645.959   105661125.639        -149.472          43.000    20106646.485    78902793.715        -111.636          40.125  
G04  20491423.663   107683196.217        2030.552          40.500    20491426.632    80412716.060        1516.193          39.875  
G06  22881839.007   120244894.166        3576.684          36.375    22881842.953    89793271.110        2670.675          38.000  
G09  22776494.064   119691335.159        3857.904          35.250    22776493.752    89379879.727        2881.039          36.500  
G17  23059830.776   121180228.020       -1421.290          40.250                                                                  
G19  22400718.871   117716576.210         -85.450          33.125                                                                  
G28  23758273.090   124850572.236       -1623.490          36.250                                                                  
G31  22071088.303   115984345.137         299.637          41.375                                                                  
R10  22514764.956   120016062.773        2470.274          26.500  
R02  22290019.427   118943972.569        3860.699          27.875  
R09  22992255.342   122777344.847        -432.149          35.750  
R01  19385264.232   103625297.114        1266.655          34.000  
R24  19757527.252   105652453.428        -904.421          39.000  
R17  21125931.861   113049100.054        3449.952          38.000  
R08  21148715.954   113250354.222       -2350.322          36.125  
E12  24135329.136   126832008.022        1479.270          37.750    24135329.312    94712219.228        1104.422          37.500  
> 2024 06 26 15 01 32.0000000  0 17       0.000000000000
G02  23143031.817   121617532.891       -2542.293          27.500                                                                  
G03  20106789.330   105661880.141        -149.379          43.125    20106789.996    78903357.158        -111.693          40.250  
G04  20491152.626   107681770.770        2030.601          40.625    20491154.059    80411651.621        1516.036          39.750  
G06  22881276.830   120241922.773        3576.649          37.000    22881277.426    89791052.172        2670.728          38.000  
G09  22775875.349   119688081.947        3858.420          35.000    22775873.990    89377450.413        2881.083          36.750  
G17  23060215.449   121182254.178       -1420.973          39.875                                                                  
G19  22400855.960   117717266.723         -85.706          33.250                                                                  
G28  23758696.223   124852800.562       -1623.317          36.750                                                                  
G31  22071141.631   115984650.526         299.592          41.000                                                                  
R10  22514414.556   120014206.234        2470.029          25.625  
R02  22289422.420   118940726.118        3861.155          27.875  
R09  22992447.923   122778391.868        -432.361          35.750  
R01  19385143.476   103624646.125        1266.452          34.125  
R24  19757811.342   105653973.638        -904.637          39.500  
R17  21125404.864   113046266.094        3450.075          38.750  
R08  21149269.684   113253320.892       -2349.838          36.250  
E12  24135163.289   126831133.811        1479.295          37.500    24135163.116    94711566.406        1104.518          37.375  
> 2024 06 26 15 01 33.0000000  0 17       0.000000000000
G02  23143631.337   121620679.662       -2542.013          27.625                                                                  
G03  20106934.097   105662634.425        -149.483          43.250    20106933.855    78903920.413        -111.653          39.875  
G04  20490880.124   107680345.222        2030.270          40.625    20490883.162    80410587.078        1515.986          39.875  
G06  22880711.862   120238951.020        3576.447          37.375    22880712.108    89788833.022        2670.687          38.375  
G09  22775254.610   119684828.408        3858.361          35.250    22775254.996    89375020.817        2881.092          36.875  
G17  23060602.425   121184280.151       -1421.178          39.375                                                                  
G19  22400976.715   117717957.270         -85.645          31.625                                                                  
G28  23759125.847   124855028.777       -1623.280          36.125                                                                  
G31  22071206.267   115984956.008         299.170          41.000                                                                  
R10  22514060.107   120012349.898        2469.546          25.375  
R02  22288812.779   118937479.206        3860.781          27.500  
R09  22992646.856   122779439.035        -432.872          35.750  
R01  19385025.582   103623995.036        1265.922          34.250  
R24  19758100.945   105655494.091        -905.222          39.500  
R17  21124873.121   113043432.186        3449.575          38.500  
R08  21149811.549   113256287.150       -2350.096          36.375  
E12  24135000.513   126830259.351        1479.157          37.625    24134996.501    94710913.399        1104.543          37.125  
> 2024 06 26 15 01 34.0000000  0 17       0.000000000000
G02  23144228.623   121623826.655       -2541.669          26.875                                                                  
G03  20107074.397   105663389.050        -149.535          43.500    20107077.156    78904483.934        -111.652          39.875  
G04  20490609.715   107678920.075        2030.248          41.000    20490611.916    80409522.845        1516.081          39.750  
G06  22880143.682   120235979.499        3576.472          37.000    22880146.651    89786614.015        2670.978          38.000  
G09  22774635.685   119681575.004        3858.489          35.250    22774636.001    89372591.335        2881.302          36.875  
G17  23060987.935   121186306.483       -1421.204          39.625                                                                  
G19  22401106.336   117718648.451         -86.397          31.375                                                                  
G28  23759544.025   124857257.364       -1623.360          35.500                                                                  
G31  22071262.108   115985262.133         298.831          41.125                                                                  
R10  22513705.797   120010494.125        2468.953          25.875  
R02  22288206.418   118934232.567        3861.050          27.750  
R09  22992835.807   122780486.959        -433.184          36.000  
R01  19384892.681   103623344.341        1266.309          34.125  
R24  19758387.687   105657015.345        -905.719          39.250  
R17  21124341.377   113040598.857        3449.235          38.250  
R08  21150371.422   113259253.537       -2349.436          36.250  
E12  24134829.152   126829385.210        1479.343          37.750    24134830.375    94710260.631        1104.592          37.375  
> 2024 06 26 15 01 35.0000000  0 17       0.000000000000
G02  23144833.029   121626973.639       -2542.090          27.500                                                                  
G03  20107220.560   105664143.899        -150.156          43.750    20107220.388    78905047.590        -112.005          39.625  
G04  20490339.236   107677495.262        2029.466          41.125    20490340.600    80408458.836        1515.572          39.875  
G06  22879577.527   120233008.055        3576.267          36.750    22879580.705    89784395.106        2670.511          38.250  
G09  22774014.038   119678321.657        3858.154          34.750    22774016.937    89370161.870        2881.344          36.875  
G17  23061372.189   121188332.991       -1421.770          39.375                                                                  
G19  22401246.984   117719340.096         -87.018          32.750                                                                  
G28  23759969.042   124859486.328       -1624.228          36.125                                                                  
G31  22071320.182   115985568.807         297.781          41.000                                                                  
R10  22513344.857   120008638.936        2468.250          25.750  
R02  22287589.378   118930985.916        3860.652          27.875  
R09  22993033.204   122781535.485        -434.239          35.625  
R01  19384771.437   103622694.018        1265.555          34.125  
R24  19758669.334   105658537.286        -906.820          38.750  
R17  21123814.171   113037765.973        3448.580          38.250  
R08  21150928.503   113262219.992       -2350.187          36.625  
E12  24134662.537   126828511.286        1478.519          38.000    24134664.179    94709607.964        1104.423          37.250  
> 2024 06 26 15 01 36.0000000  0 17       0.000000000000
G02  23145429.966   121630121.296       -2541.601          28.625                                                                  
G03  20107366.304   105664899.579        -149.959          44.250    20107364.108    78905611.927        -112.174          39.750  
G04  20490068.758   107676071.340        2029.590          40.750    20490069.702    80407395.539        1515.527          40.000  
G06  22879011.233   120230037.416        3576.295          36.375    22879016.156    89782176.712        2671.006          38.250  
G09  22773395.882   119675068.986        3858.397          34.750    22773398.292    89367732.943        2881.314          37.125  
G17  23061756.513   121190360.378       -1421.703          39.125                                                                  
G19  22401381.211   117720032.884         -87.184          32.750                                                                  
G28  23760396.084   124861716.221       -1624.265          36.000                                                                  
G31  22071379.094   115985876.572         297.673          41.250                                                                  
R10  22512999.342   120006784.921        2467.537          26.750  
R02  22286997.257   118927740.002        3860.855          29.500  
R09  22993230.042   122782585.203        -434.463          35.625  
R01  19384664.432   103622044.630        1265.541          34.250  
R24  19758955.727   105660060.505        -907.195          39.375  
R17  21123282.847   113034934.208        3448.356          38.000  
R08  21151479.301   113265187.036       -2349.623          36.375  
E12  24134499.063   126827638.141        1478.797          38.250    24134497.913    94708955.994        1104.166          37.125  
> 2024 06 26 15 01 37.0000000  0 17       0.000000000000
G02  23146033.116   121633268.890       -2542.432          29.375                                                                  
G03  20107508.628   105665655.312        -150.403          43.875    20107507.688    78906176.276        -112.538          39.750  
G04  20489796.395   107674647.597        2029.046          41.125    20489798.596    80406332.344        1515.188          39.625  
G06  22878448.986   120227066.677        3576.112          36.500    22878450.978    89779958.355        2670.400          38.375  
G09  22772772.559   119671816.175        3858.223          34.625    22772778.809    89365303.936        2881.151          36.750  
G17  23062142.093   121192387.819       -1422.259          38.750                                                                  
G19  22401509.157   117720725.912         -87.781          32.750                                                                  
G28  23760820.892   124863946.251       -1624.811          35.750                                                                  
G31  22071438.983   115986184.716         297.096          41.375                                                                  
R10  22512656.550   120004931.214        2467.331          26.625  
R02  22286388.942   118924493.951        3860.944          29.375  
R09  22993433.861   122783635.388        -435.139          36.000  
R01  19384526.227   103621395.422        1264.755          33.750  
R24  19759241.213   105661584.196        -907.962          39.500  
R17  21122754.733   113032102.710        3447.687          37.375  
R08  21152028.914   113268153.941       -2350.040          36.125  
E12  24134333.007   126826765.039        1478.344          38.000    24134332.765    94708304.002        1103.853          37.375  
> 2024 06 26 15 01 38.0000000  0 17       0.000000000000
G02  23146632.426   121636416.493       -2542.444          29.750                                                                  
G03  20107651.022   105666411.251        -150.690          43.625    20107651.897    78906740.773        -112.577          39.750  
G04  20489528.638   107673224.120        2028.765          41.375    20489527.559    80405269.365        1514.900          39.625  
G06  22877881.994   120224096.034        3575.947          37.000    22877885.939    89777740.033        2670.263          38.375  
G09  22772156.008   119668563.455        3858.034          34.500    22772159.535    89362874.936        2880.953          36.625  
G17  23062526.696   121194415.441       -1422.433          39.375                                                                  
G19  22401641.708   117721419.516         -88.939          32.750                                                                  
G28  23761243.676   124866176.558       -1625.284          35.625                                                                  
G31  22071498.383   115986493.333         296.429          40.875                                                                  
R10  22512301.543   120003077.972        2467.380          26.500  
R02  22285788.794   118921247.938        3860.742          30.125  
R09  22993631.327   122784686.228        -435.825          35.750  
R01  19384402.958   103620746.458        1264.443          33.875  
R24  19759521.533   105663108.486        -908.483          39.125  
R17  21122227.317   113029271.639        3447.263          37.750  
R08  21152589.764   113271120.885       -2350.165          36.250  
E12  24134165.205   126825892.094        1478.200          37.625    24134165.940    94707652.126        1103.862          37.500  
> 2024 06 26 15 01 39.0000000  0 17       0.000000000000
G02  23147227.200   121639564.395       -2542.488          29.125                                                                  
G03  20107795.859   105667167.765        -151.120          43.625    20107795.407    78907305.688        -112.687          39.500  
G04  20489257.741   107671801.324        2028.047          41.125    20489256.871    80404206.845        1514.729          39.625  
G06  22877314.163   120221125.888        3575.741          36.375    22877320.971    89775522.061        2670.090          38.750  
G09  22771538.619   119665311.095        3857.769          35.125    22771541.309    89360446.222        2880.801          36.750  
G17  23062915.696   121196443.665       -1422.855          39.500                                                                  
G19  22401781.240   117722113.857         -89.161          32.750                                                                  
G28  23761665.762   124868407.473       -1625.531          35.250                                                                  
G31  22071557.295   115986802.808         295.748          40.750                                                                  
R10  22511958.541   120001225.791        2466.025          26.625  
R02  22285182.643   118918002.301        3860.504          30.000  
R09  22993840.800   122785737.985        -436.787          36.375  
R01  19384293.510   103620098.179        1264.074          34.250  
R24  19759807.996   105664633.816        -909.541          39.000  
R17  21121690.130   113026441.379        3446.605          37.750  
R08  21153141.330   113274088.220       -2350.333          36.125  
E12  24133999.428   126825019.710        1477.700          37.375    24134000.861    94707000.665        1103.660          37.375  
> 2024 06 26 15 01 40.0000000  0 17       0.000000000000
G02  23147824.765   121642712.759       -2542.335          29.875                                                                  
G03  20107938.881   105667924.834        -151.220          43.750    20107939.267    78907871.033        -112.794          39.625  
G04  20488986.844   107670379.150        2028.032          40.875    20488986.113    80403144.843        1514.560          39.500  
G06  22876750.521   120218156.193        3575.542          36.125    22876755.444    89773304.404        2670.159          38.625  
G09  22770920.602   119662059.107        3857.970          35.625    22770922.314    89358017.791        2881.002          36.500  
G17  23063301.276   121198472.427       -1422.891          39.375                                                                  
G19  22401910.163   117722809.022         -89.118          33.750                                                                  
G28  23762090.640   124870639.118       -1625.806          35.625                                                                  
G31  22071612.857   115987113.163         295.397          40.375                                                                  
R10  22511615.749   119999374.510        2465.641          25.750  
R02  22284569.582   118914757.078        3860.499          29.750  
R09  22994024.167   122786790.710        -437.284          36.125  
R01  19384171.359   103619450.598        1263.891          34.000  
R24  19760099.066   105666160.137        -909.962          39.375  
R17  21121162.993   113023611.907        3446.398          37.750  
R08  21153684.312   113277055.934       -2350.257          36.375  
E12  24133833.302   126824147.878        1477.605          37.375    24133833.758    94706349.596        1103.748          37.250  
> 2024 06 26 15 01 41.0000000  0 17       0.000000000000
G02  23148423.168   121645861.233       -2542.424          30.750                                                                  
G03  20108082.531   105668682.182        -151.059          43.750    20108083.196    78908436.573        -112.763          39.500  
G04  20488715.597   107668957.325        2028.038          40.750    20488715.355    80402083.106        1514.438          39.375  
G06  22876182.272   120215186.630        3575.897          36.125    22876190.057    89771086.885        2670.389          38.500  
G09  22770302.934   119658807.269        3858.085          35.500    22770303.529    89355589.460        2881.033          36.625  
G17  23063685.321   121200501.463       -1422.695          38.500                                                                  
G19  22402049.276   117723504.822         -89.710          34.125                                                                  
G28  23762515.798   124872871.063       -1625.771          35.125                                                                  
G31  22071669.605   115987424.047         295.208          39.750                                                                  
R10  22511270.653   119997523.708        2465.545          24.750  
R02  22283963.780   118911511.938        3860.618          29.375  
R09  22994222.401   122787844.076        -437.369          35.875  
R01  19384054.931   103618803.401        1263.825          34.125  
R24  19760384.132   105667687.183        -910.451          39.500  
R17  21120637.113   113020782.941        3446.116          37.000  
R08  21154246.069   113280023.617       -2349.720          36.875  
E12  24133667.246   126823276.262        1477.842          37.500    24133668.260    94705698.745        1103.541          37.250  
> 2024 06 26 15 01 42.0000000  0 17       0.000000000000
G02  23149023.805   121649009.900       -2542.111          29.500                                                                  
G03  20108227.159   105669439.965        -151.718          43.375    20108227.824    78909002.468        -113.281          39.500  
G04  20488445.608   107667536.035        2027.278          40.625    20488445.156    80401021.748        1514.043          39.250  
G06  22875620.863   120212217.426        3575.107          36.375    22875624.949    89768869.613        2670.046          38.625  
G09  22769686.243   119655555.656        3857.749          35.500    22769684.325    89353161.322        2880.798          36.750  
G17  23064072.436   121202530.943       -1423.414          37.750                                                                  
G19  22402182.526   117724201.229         -90.507          34.625                                                                  
G28  23762939.419   124875103.552       -1626.433          34.625                                                                  
G31  22071730.890   115987735.689         294.249          40.000                                                                  
R10  22510909.434   119995673.584        2465.569          23.750  
R02  22283354.627   118908267.112        3860.262          29.500  
R09  22994411.631   122788898.281        -438.432          35.250  
R01  19383931.174   103618156.755        1263.283          34.125  
R24  19760671.154   105669215.074        -911.496          39.625  
R17  21120105.440   113017954.674        3445.300          37.375  
R08  21154799.381   113282991.599       -2350.391          36.875  
E12  24133501.957   126822405.059        1477.254          37.625    24133502.552    94705048.152        1103.289          37.375  
> 2024 06 26 15 01 43.0000000  0 17       0.000000000000
G02  23149619.207   121652159.045       -2542.739          28.625                                                                  
G03  20108372.414   105670198.241        -151.838          43.500    20108371.823    78909568.704        -113.289          39.375  
G04  20488172.477   107666115.349        2026.989          40.500    20488175.445    80399960.830        1513.846          39.250  
G06  22875054.568   120209248.603        3575.291          36.500    22875060.259    89766652.657        2669.951          38.625  
G09  22769060.827   119652304.378        3857.656          35.125    22769065.261    89350733.438        2880.796          36.750  
G17  23064457.458   121204560.930       -1423.527          38.500                                                                  
G19  22402314.379   117724898.420         -90.855          35.125                                                                  
G28  23763362.343   124877336.582       -1626.506          34.500                                                                  
G31  22071792.454   115988048.095         293.972          39.625                                                                  
R10  22510569.015   119993824.559        2464.326          23.625  
R02  22282732.282   118905022.595        3860.669          30.250  
R09  22994621.453   122789953.430        -439.154          36.000  
R01  19383805.672   103617510.744        1263.043          34.125  
R24  19760953.847   105670743.890        -911.793          39.750  
R17  21119585.981   113015127.180        3445.097          37.000  
R08  21155341.315   113285959.875       -2350.279          36.875  
E12  24133336.529   126821534.323        1477.218          37.625    24133336.775    94704397.963        1102.979          37.375  
> 2024 06 26 15 01 44.0000000  0 17       0.000000000000
G02  23150222.705   121655308.426       -2542.618          28.250                                                                  
G03  20108515.715   105670956.947        -152.300          43.375    20108516.520    78910135.284        -113.716          39.625  
G04  20487904.371   107664695.160        2026.481          40.500    20487904.897    80398900.311        1513.355          39.375  
G06  22874491.135   120206280.132        3574.941          36.375    22874495.500    89764435.950        2669.537          38.625  
G09  22768441.832   119649053.367        3857.406          34.500    22768446.825    89348305.736        2880.562          36.375  
G17  23064844.644   121206591.367       -1424.148          38.000                                                                  
G19  22402450.491   117725596.299         -91.520          35.750                                                                  
G28  23763786.453   124879570.183       -1627.235          35.125                                                                  
G31  22071849.063   115988361.252         293.201          39.125                                                                  
R10  22510208.283   119991976.213        2463.028          24.000  
R02  22282123.618   118901778.391        3859.919          30.625  
R09  22994815.778   122791009.329        -439.814          35.750  
R01  19383688.057   103616865.251        1262.409          33.750  
R24  19761239.054   105672273.637        -912.864          39.625  
R17  21119047.956   113012300.343        3444.415          36.500  
R08  21155911.588   113288928.407       -2350.551          37.000  
E12  24133166.215   126820664.002        1476.752          37.625    24133171.277    94703748.038        1102.690          37.625  
> 2024 06 26 15 01 45.0000000  0 17       0.000000000000
G02  23150819.852   121658458.242       -2542.765          27.125                                                                  
G03  20108660.273   105671716.212        -152.330          43.500    20108660.799    78910702.256        -113.618          39.375  
G04  20487632.846   107663275.601        2026.707          40.500    20487634.349    80397840.256        1513.409          39.375  
G06  22873925.958   120203312.096        3575.041          36.625    22873931.997    89762219.526        2669.934          38.625  
G09  22767821.232   119645802.700        3858.080          34.375    22767828.668    89345878.305        2880.797          36.750  
G17  23065228.479   121208622.312       -1423.742          38.125                                                                  
G19  22402582.345   117726295.032         -91.739          35.500                                                                  
G28  23764216.077   124881804.409       -1627.192          35.500                                                                  
G31  22071909.860   115988675.286         292.834          38.750                                                                  
R10  22509858.511   119990128.563        2463.619          23.750  
R02  22281524.098   118898534.586        3860.072          30.375  
R09  22995009.965   122792066.188        -440.195          35.625  
R01  19383567.162   103616220.454        1262.255          34.000  
R24  19761523.423   105673804.375        -913.199          39.625  
R17  21118512.583   113009474.306        3444.139          36.500  
R08  21156464.760   113291897.277       -2350.102          37.000  
E12  24133006.719   126819794.193        1477.087          37.750    24133006.198    94703098.510        1102.811          37.625  
> 2024 06 26 15 01 46.0000000  0 17       0.000000000000
G02  23151421.466   121661608.418       -2542.865          27.250                                                                  
G03  20108804.621   105672476.107        -152.686          43.625    20108805.217    78911269.701        -113.856          39.375  
G04  20487363.554   107661856.801        2025.967          40.625    20487364.149    80396780.769        1512.925          39.250  
G06  22873359.733   120200344.571        3574.866          36.500    22873367.378    89760003.527        2669.590          38.750  
G09  22767205.239   119642552.543        3857.318          34.750    22767209.604    89343451.242        2880.514          36.625  
G17  23065618.526   121210653.934       -1424.511          38.000                                                                  
G19  22402713.291   117726994.646         -92.556          36.250                                                                  
G28  23764638.163   124884039.353       -1627.693          35.500                                                                  
G31  22071964.653   115988990.251         291.936          38.625                                                                  
R10  22509520.256   119988281.983        2462.428          24.000  
R02  22280916.621   118895291.175        3860.029          30.375  
R09  22995206.245   122793124.081        -441.116          35.500  
R01  19383443.475   103615576.372        1261.578          34.000  
R24  19761811.910   105675336.198        -914.297          39.750  
R17  21118003.106   113006649.158        3443.295          37.125  
R08  21157019.747   113294866.583       -2350.261          36.750  
E12  24132840.105   126818925.030        1476.395          37.875    24132840.979    94702449.443        1102.581          37.625  
> 2024 06 26 15 01 47.0000000  0 17       0.000000000000
G02  23152021.125   121664758.528       -2542.656          27.625                                                                  
G03  20108950.296   105673236.120        -152.658          43.750    20108949.844    78911837.267        -113.985          39.375  
G04  20487093.285   107660438.170        2025.974          40.500    20487094.299    80395721.426        1512.818          39.250  
G06  22872797.556   120197377.104        3574.835          36.750    22872801.642    89757787.584        2669.441          38.750  
G09  22766589.595   119639302.326        3857.662          34.875    22766591.447    89341024.142        2880.576          36.875  
G17  23066005.083   121212685.660       -1424.460          37.875                                                                  
G19  22402847.588   117727694.634         -92.941          36.000                                                                  
G28  23765061.436   124886274.539       -1627.781          35.250                                                                  
G31  22072028.800   115989305.587         291.793          38.875                                                                  
R10  22509172.717   119986435.871        2461.849          24.000  
R02  22280311.866   118892047.740        3860.392          31.000  
R09  22995407.969   122794182.465        -441.437          35.250  
R01  19383325.790   103614932.487        1261.624          33.750  
R24  19762093.905   105676868.514        -914.458          39.500  
R17  21117467.175   113003824.352        3443.111          37.250  
R08  21157576.340   113297835.845       -2350.253          36.375  
E12  24132673.699   126818055.921        1476.515          37.875    24132675.063    94701800.467        1102.418          37.875  
> 2024 06 26 15 01 48.0000000  0 17       0.000000000000
G02  23152623.926   121667909.033       -2542.796          27.625                                                                  
G03  20109092.550   105673996.669        -152.513          43.750    20109094.611    78912405.237        -114.162          39.500  
G04  20486823.225   107659020.172        2025.976          40.375    20486823.890    80394662.524        1512.780          39.125  
G06  22872230.703   120194410.029        3575.129          36.875    22872237.511    89755571.917        2669.540          38.750  
G09  22765968.367   119636052.455        3857.797          35.000    22765973.081    89338597.303        2880.687          37.250  
G17  23066392.409   121214717.887       -1424.233          37.750                                                                  
G19  22402982.164   117728395.436         -93.062          35.750                                                                  
G28  23765489.315   124888510.268       -1627.672          35.125                                                                  
G31  22072087.433   115989621.777         291.686          39.125                                                                  
R10  22508839.837   119984590.696        2461.209          23.750  
R02  22279706.553   118888804.702        3860.396          31.375  
R09  22995606.692   122795241.793        -441.800          34.625  
R01  19383207.966   103614289.230        1261.726          33.875  
R24  19762386.371   105678401.818        -914.843          39.125  
R17  21116935.920   113001000.324        3443.059          37.000  
R08  21158135.096   113300805.394       -2349.874          37.000  
E12  24132509.179   126817187.325        1476.549          38.000    24132510.193    94701151.853        1102.429          37.625  
> 2024 06 26 15 01 49.0000000  0 17       0.000000000000
G02  23153215.837   121671060.092       -2541.826          25.500                                                                  
G03  20109242.622   105674758.083        -152.961          43.875    20109239.657    78912973.789        -114.196          39.500  
G04  20486554.980   107657603.108        2025.668          40.375    20486555.017    80393604.344        1512.453          39.250  
G06  22871668.387   120191443.713        3574.916          37.250    22871673.589    89753356.816        2669.549          38.750  
G09  22765352.235   119632803.251        3857.892          35.250    22765354.855    89336170.979        2880.662          37.125  
G17  23066778.617   121216750.996       -1424.509          37.625                                                                  
G19  22403113.041   117729097.291         -93.365          35.250                                                                  
G28  23765914.752   124890747.007       -1628.235          35.625                                                                  
G31  22072148.509   115989939.088         291.241          39.125                                                                  
R10  22508471.777   119982746.452        2461.125          23.375  
R02  22279092.584   118885562.329        3860.405          31.250  
R09  22995794.247   122796302.322        -442.285          35.125  
R01  19383087.630   103613646.967        1261.144          33.875  
R24  19762671.159   105679936.441        -915.587          39.000  
R17  21116416.183   112998177.417        3442.538          36.750  
R08  21158675.843   113303775.646       -2349.987          36.875  
E12  24132341.587   126816319.564        1476.252          37.750    24132345.044    94700503.828        1102.458          37.625  
> 2024 06 26 15 01 50.0000000  0 17       0.000000000000
G02  23153810.750   121674210.619       -2542.659          24.125                                                                  
G03  20109384.667   105675518.914        -152.398          43.875    20109384.145    78913541.948        -113.750          39.375  
G04  20486284.990   107656185.586        2025.969          40.375    20486285.027    80392545.782        1512.993          39.250  
G06  22871105.931   120188476.723        3575.518          37.500    22871107.713    89751141.210        2669.875          38.750  
G09  22764729.262   119629553.354        3858.391          34.625    22764736.000    89333744.075        2881.400          36.875  
G17  23067161.894   121218783.533       -1424.104          37.375                                                                  
G19  22403246.291   117729798.945         -93.468          35.500                                                                  
G28  23766343.748   124892983.240       -1628.014          36.375                                                                  
G31  22072209.026   115990256.162         291.176          39.125                                                                  
R10  22508123.679   119980902.059        2461.284          23.500  
R02  22278488.248   118882319.225        3861.215          30.250  
R09  22995990.178   122797362.683        -442.181          34.500  
R01  19382959.126   103613004.233        1261.389          33.875  
R24  19762960.204   105681470.903        -915.558          38.875  
R17  21115880.880   112995354.168        3442.625          36.125  
R08  21159233.413   113306745.105       -2349.443          36.500  
E12  24132178.252   126815451.229        1476.750          37.750    24132179.127    94699855.388        1102.804          37.500  
> 2024 06 26 15 01 51.0000000  0 18       0.000000000000
G02  23154407.548   121677362.204       -2542.527          23.500                                                                  
G03  20109528.387   105676281.097        -153.073          43.625    20109529.401    78914111.130        -114.467          39.375  
G04  20486016.117   107654769.494        2025.055          40.375    20486015.596    80391488.320        1512.241          39.125  
G06  22870540.335   120185510.985        3574.884          37.750    22870543.233    89748926.543        2669.492          38.625  
G09  22764114.316   119626304.644        3857.637          35.000    22764118.122    89331318.104        2880.849          37.250  
G17  23067551.732   121220817.397       -1424.778          37.875                                                                  
G19  22403382.542   117730502.153         -94.318          35.375                                                                  
G28  23766770.232   124895220.903       -1628.658          36.750                                                                  
G31  22072269.753   115990574.883         290.182          39.000                                                                  
R10  22507804.480   119979059.440        2459.706          23.000  
R02  22277866.043   118879077.270        3860.603          29.500  
R09  22996197.976   122798424.786        -443.213          35.250  
R01  19382846.258   103612362.931        1260.934          34.125  
R24  19763240.594   105683007.179        -916.735          39.125  
R17  21115356.116   112992532.498        3441.735          36.375  
R08  21159775.486   113309715.736       -2349.822          35.375  
E12  24132013.452   126814584.190        1476.114          37.500    24132014.676    94699207.943        1102.234          37.625  
E33                                                                                                       734.135           9.500  
> 2024 06 26 15 01 52.0000000  0 18       0.000000000000
G02  23155005.392   121680514.036       -2542.405          24.875                                                                  
G03  20109675.597   105677043.670        -153.255          43.750    20109674.238    78914680.591        -114.608          39.375  
G04  20485745.988   107653353.870        2024.829          40.000    20485746.304    80390431.188        1512.162          39.250  
G06  22869979.903   120182545.534        3574.747          37.875    22869979.103    89746712.070        2669.562          38.875  
G09  22763501.534   119623056.062        3858.139          34.875    22763500.733    89328892.245        2880.905          37.500  
G17  23067939.057   121222851.653       -1424.949          37.750                                                                  
G19  22403521.516   117731206.021         -94.549          35.250                                                                  
G28  23767194.132   124897459.025       -1628.741          36.375                                                                  
G31  22072329.502   115990894.252         289.766          39.125                                                                  
R10  22507461.548   119977217.314        2460.041          24.000  
R02  22277262.335   118875835.544        3860.740          29.750  
R09  22996412.125   122799487.687        -443.879          35.875  
R01  19382718.732   103611722.162        1260.387          34.250  
R24  19763527.895   105684544.299        -917.374          39.125  
R17  21114820.045   112989711.455        3441.266          36.875  
R08  21160344.154   113312686.544       -2349.679          35.500  
E12  24131847.954   126813717.546        1475.744          37.500    24131849.597    94698560.739        1102.301          37.750  
E33                                     -1518.901          40.000                                                                  
> 2024 06 26 15 01 53.0000000  0 18       0.000000000000
G02  23155603.167   121683665.736       -2542.321          24.875                                                                  
G03  20109820.224   105677806.152        -153.029          44.000    20109819.284    78915249.973        -114.389          39.375  
G04  20485475.649   107651938.238        2025.074          40.000    20485476.244    80389374.093        1512.026          39.125  
G06  22869412.841   120179579.898        3575.261          37.750    22869414.483    89744497.483        2669.651          38.750  
G09  22762879.259   119619807.275        3858.551          35.125    22762881.529    89326466.215        2881.031          37.625  
G17  23068329.802   121224885.825       -1424.659          38.125                                                                  
G19  22403650.298   117731910.053         -94.754          35.750                                                                  
G28  23767620.546   124899697.144       -1628.547          36.125                                                                  
G31  22072393.370   115991213.807         289.892          39.125                                                                  
R10  22507101.794   119975375.547        2459.872          24.250  
R02  22276661.698   118872593.574        3861.251          29.500  
R09  22996601.844   122800550.879        -443.840          35.750  
R01  19382616.683   103611081.348        1261.038          34.375  
R24  19763820.221   105686081.742        -917.340          39.000  
R17  21114306.730   112986890.571        3441.396          37.125  
R08  21160905.074   113315657.083       -2349.317          36.000  
E12  24131682.596   126812850.729        1476.453          37.500    24131685.425    94697913.488        1102.255          37.500  
E33                                     -1520.030          40.875                                       -1133.692          26.625  
> 2024 06 26 15 01 54.0000000  0 18       0.000000000000
G02  23156209.179   121686817.706       -2542.899          25.375                                                                  
G03  20109965.689   105678569.189        -153.720          44.250    20109964.749    78915819.752        -114.744          39.375  
G04  20485207.962   107650523.275        2024.221          39.875    20485206.813    80388317.442        1511.505          39.125  
G06  22868851.292   120176614.712        3574.385          38.000    22868850.212    89742283.210        2669.301          38.875  
G09  22762260.334   119616558.894        3857.852          35.250    22762264.210    89324040.443        2880.823          37.750  
G17  23068717.197   121226920.577       -1425.552          37.875                                                                  
G19  22403785.712   117732614.939         -95.790          36.500                                                                  
G28  23768047.379   124901935.950       -1629.575          36.125                                                                  
G31  22072450.746   115991534.262         288.782          38.625                                                                  
R10  22506737.573   119973534.752        2457.667          23.875  
R02  22276052.964   118869352.094        3860.227          29.500  
R09  22996797.356   122801615.071        -445.253          35.500  
R01  19382477.360   103610441.255        1259.962          34.500  
R24  19764104.380   105687620.199        -918.589          38.500  
R17  21113769.891   112984070.460        3440.483          37.125  
R08  21161450.917   113318627.986       -2349.852          36.000  
E12  24131519.262   126811984.498        1475.459          37.500    24131519.439    94697266.611        1101.735          37.625  
E33                                     -1520.244          41.000                                       -1135.562          36.000  
> 2024 06 26 15 01 55.0000000  0 18       0.000000000000
G02  23156812.328   121689969.975       -2542.299          26.250                                                                  
G03  20110112.550   105679332.707        -153.604          44.125    20110109.935    78916389.910        -114.601          39.250  
G04  20484936.925   107649108.842        2024.359          39.750    20484937.660    80387261.203        1511.534          39.125  
G06  22868286.603   120173649.878        3574.625          38.250    22868287.338    89740069.216        2669.475          38.875  
G09  22761642.596   119613310.812        3858.015          35.125    22761645.565    89321614.915        2881.203          37.500  
G17  23069101.590   121228955.764       -1425.291          38.375                                                                  
G19  22403922.243   117733320.522         -95.705          36.000                                                                  
G28  23768474.351   124904175.267       -1629.211          36.375                                                                  
G31  22072513.916   115991855.484         288.531          39.000                                                                  
R10  22506398.061   119971694.521        2458.963          24.375  
R02  22275451.699   118866110.872        3860.623          29.250  
R09  22996994.124   122802680.088        -445.532          35.125  
R01  19382366.865   103609801.738        1259.952          35.000  
R24  19764388.889   105689159.512        -918.756          38.250  
R17  21113250.572   112981251.040        3440.531          36.750  
R08  21161999.413   113321599.135       -2349.648          35.750  
E12  24131354.811   126811118.680        1475.724          37.375    24131355.127    94696620.038        1102.062          37.500  
E33                                     -1520.465          41.000                                       -1135.511          36.125  
> 2024 06 26 15 01 56.0000000  0 18       0.000000000000
G02  23157410.312   121693122.647       -2542.393          26.000                                                                  
G03  20110257.666   105680096.835        -154.171          44.000    20110255.121    78916960.537        -115.086          39.375  
G04  20484668.192   107647695.097        2023.752          39.500    20484668.648    80386205.521        1510.981          39.000  
G06  22867717.865   120170685.567        3574.287          37.750    22867722.020    89737855.608        2669.210          38.875  
G09  22761024.928   119610063.156        3857.750          35.625    22761027.408    89319189.721        2880.934          37.375  
G17  23069491.359   121230991.574       -1425.850          38.500                                                                  
G19  22404054.934   117734027.002         -96.577          36.750                                                                  
G28  23768902.788   124906415.295       -1629.970          37.375                                                                  
G31  22072574.573   115992177.619         287.741          39.000                                                                  
R10  22506065.460   119969855.350        2457.773          23.875  
R02  22274823.142   118862870.074        3860.438          29.250  
R09  22997197.036   122803746.101        -446.463          35.750  
R01  19382242.271   103609162.901        1259.297          34.875  
R24  19764673.955   105690699.881        -919.828          37.750  
R17  21112728.810   112978432.499        3439.596          36.625  
R08  21162568.220   113324570.734       -2349.961          36.375  
E12  24131189.104   126810253.452        1475.255          37.250    24131190.955    94695973.943        1101.669          37.500  
E33                                     -1520.972          40.875                                       -1135.902          36.375  
> 2024 06 26 15 01 57.0000000  0 18       0.000000000000
G02  23158006.691   121696275.211       -2543.030          26.375                                                                  
G03  20110401.805   105680860.977        -154.827          43.875    20110400.935    78917531.137        -115.408          39.375  
G04  20484398.341   107646281.506        2022.874          39.875    20484400.054    80385149.861        1510.844          39.125  
G06  22867156.875   120167721.153        3573.786          38.000    22867157.890    89735641.904        2669.133          39.000  
G09  22760405.654   119606815.365        3857.272          35.375    22760409.740    89316764.445        2880.449          37.250  
G17  23069879.382   121233027.417       -1426.455          38.500                                                                  
G19  22404190.278   117734733.758         -97.660          36.625                                                                  
G28  23769330.738   124908655.474       -1630.790          37.750                                                                  
G31  22072637.673   115992500.038         286.772          39.500                                                                  
R10  22505736.070   119968016.590        2456.913          24.625  
R02  22274227.321   118859629.163        3859.663          28.375  
R09  22997394.014   122804812.485        -447.408          35.125  
R01  19382123.958   103608524.193        1258.653          34.625  
R24  19764961.396   105692240.702        -920.800          37.625  
R17  21112192.111   112975614.239        3438.691          36.500  
R08  21163120.834   113327542.158       -2350.297          36.875  
E12  24131024.024   126809388.260        1474.483          37.500    24131026.993    94695327.836        1101.281          37.625  
E33                                     -1521.451          41.000                                       -1135.807          36.000  
> 2024 06 26 15 01 58.0000000  0 18       0.000000000000
G02  23158607.607   121699428.462       -2542.821          27.750                                                                  
G03  20110547.340   105681625.975        -154.640          43.500    20110546.539    78918102.449        -115.785          39.375  
G04  20484129.119   107644868.845        2022.892          40.000    20484131.599    80384094.992        1510.366          39.125  
G06  22866591.837   120164757.524        3573.936          37.750    22866593.619    89733428.850        2668.655          38.750  
G09  22759787.637   119603568.247        3857.614          35.125    22759791.723    89314339.676        2880.366          37.125  
G17  23070267.265   121235064.113       -1426.407          38.500                                                                  
G19  22404321.015   117735441.616         -97.699          35.750                                                                  
G28  23769757.919   124910896.511       -1630.600          37.750                                                                  
G31  22072700.424   115992823.640         286.526          39.625                                                                  
R10  22505380.434   119966178.907        2457.110          24.750  
R02  22273612.864   118856388.898        3859.951          28.125  
R09  22997584.361   122805880.173        -447.735          35.000  
R01  19382003.761   103607886.482        1258.432          34.625  
R24  19765258.398   105693782.917        -921.422          38.125  
R17  21111668.814   112972797.139        3438.409          36.625  
R08  21163679.730   113330514.208       -2349.948          36.875  
E12  24130860.132   126808523.866        1474.617          37.500    24130861.216    94694682.391        1100.947          37.625  
E33                                     -1521.197          41.000                                       -1136.209          35.875  
> 2024 06 26 15 01 59.0000000  0 18       0.000000000000
G02  23159211.734   121702582.057       -2543.113          28.125                                                                  
G03  20110695.527   105682391.477        -155.370          43.375    20110692.004    78918674.083        -116.125          39.125  
G04  20483860.735   107643456.750        2022.291          40.000    20483862.168    80383040.507        1509.944          39.125  
G06  22866028.055   120161794.257        3573.529          37.750    22866029.628    89731216.020        2668.486          38.875  
G09  22759170.807   119600321.483        3857.038          35.500    22759173.496    89311915.128        2880.033          37.250  
G17  23070651.240   121237101.305       -1427.027          38.375                                                                  
G19  22404453.357   117736150.249         -98.627          35.625                                                                  
G28  23770181.192   124913138.168       -1631.564          37.625                                                                  
G31  22072759.336   115993148.011         285.706          39.125                                                                  
R10  22505040.364   119964342.108        2455.756          25.000  
R02  22273011.180   118853148.964        3859.592          28.625  
R09  22997790.553   122806948.711        -448.858          34.875  
R01  19381897.524   103607249.330        1257.758          34.375  
R24  19765543.465   105695326.033        -922.549          38.000  
R17  21111150.612   112969980.707        3437.648          37.000  
R08  21164233.530   113333486.559       -2350.512          36.375  
E12  24130696.309   126807659.943        1473.922          37.375    24130697.114    94694037.241        1100.611          37.625  
E33                                     -1521.958          40.625                                       -1136.537          36.000  
> 2024 06 26 15 02  0.0000000  0 18       0.000000000000
G02  23159811.114   121705735.433       -2542.881          27.875                                                                  
G03  20110836.036   105683156.869        -154.801          43.500    20110837.399    78919245.632        -115.661          39.125  
G04  20483593.677   107642044.644        2022.651          40.250    20483593.085    80381985.994        1510.433          39.125  
G06  22865465.739   120158830.831        3573.882          37.750    22865466.125    89729003.061        2668.881          39.000  
G09  22758550.556   119597074.392        3857.677          35.875    22758556.107    89309490.341        2880.858          37.375  
G17  23071038.495   121239138.392       -1426.516          38.375                                                                  
G19  22404589.190   117736859.043         -98.406          36.375                                                                  
G28  23770611.026   124915379.801       -1631.153          37.375                                                                  
G31  22072822.506   115993472.598         285.812          38.625                                                                  
R10  22504682.844   119962505.603        2455.732          25.000  
R02  22272418.361   118849908.812        3860.173          29.750  
R09  22997996.256   122808017.537        -448.706          35.000  
R01  19381775.093   103606612.199        1258.172          34.875  
R24  19765835.861   105696869.412        -922.358          38.375  
R17  21110622.010   112967164.399        3437.962          36.875  
R08  21164786.702   113336458.607       -2349.620          36.375  
E12  24130531.509   126806795.873        1474.625          37.500    24130532.942    94693392.008        1101.069          37.875  
E33                                     -1521.183          40.750                                       -1136.137          36.000  
> 2024 06 26 15 02  1.0000000  0 18       0.000000000000
G02  23160413.984   121708889.199       -2543.004          27.625                                                                  
G03  20110984.223   105683922.910        -155.460          43.250    20110983.144    78919817.668        -116.190          38.875  
G04  20483324.105   107640633.293        2021.813          40.250    20483324.980    80380932.048        1509.716          39.000  
G06  22864901.259   120155867.882        3573.601          37.250    22864902.483    89726790.502        2668.346          38.875  
G09  22757935.261   119593827.812        3857.214          35.500    22757937.950    89307065.968        2880.241          37.000  
G17  23071429.171   121241176.098       -1426.998          38.250                                                                  
G19  22404729.350   117737568.712         -99.122          36.625                                                                  
G28  23771033.181   124917622.189       -1631.762          37.375                                                                  
G31  22072885.675   115993798.111         284.926          39.125                                                                  
R10  22504369.368   119960669.973        2454.245          24.500  
R02  22271820.098   118846669.097        3859.908          30.250  
R09  22998197.213   122809087.417        -449.704          35.500  
R01  19381645.543   103605975.812        1257.491          35.000  
R24  19766126.093   105698413.864        -923.305          38.875  
R17  21110093.896   112964348.968        3437.129          36.750  
R08  21165343.155   113339431.133       -2350.138          36.375  
E12  24130368.454   126805932.446        1474.051          37.375    24130368.631    94692747.226        1100.665          37.750  
E33                                     -1521.558          40.875                                       -1136.276          35.750  
> 2024 06 26 15 02  2.0000000  0 18       0.000000000000
G02  23161012.457   121712043.128       -2543.279          27.375                                                                  
G03  20111129.060   105684689.149        -155.674          43.375    20111128.958    78920389.858        -116.065          39.000  
G04  20483057.047   107639222.197        2021.689          40.250    20483056.386    80379878.318        1509.705          38.875  
G06  22864336.779   120152905.050        3573.740          37.625    22864338.980    89724577.988        2668.705          39.250  
G09  22757315.219   119590581.228        3857.190          35.125    22757319.514    89304641.567        2880.649          36.750  
G17  23071814.821   121243214.055       -1427.399          38.500                                                                  
G19  22404863.228   117738278.887         -99.734          37.125                                                                  
G28  23771461.340   124919864.839       -1631.976          37.125                                                                  
G31  22072945.774   115994124.097         284.560          39.000                                                                  
R10  22504011.778                        2454.308          24.250  
R02  22271208.642   118843429.434        3859.882          31.375  
R09  22998398.797   122810157.843        -450.147          35.375  
R01  19381537.491   103605339.724        1257.380          35.000  
R24  19766413.743   105699958.991        -923.958          39.000  
R17  21109571.995   112961534.030        3436.605          36.750  
R08  21165896.536   113342403.675       -2350.235          36.250  
E12  24130202.677   126805069.174        1473.918          37.500    24130205.576    94692102.577        1100.761          37.875  
E33                                     -1521.723          40.875                                       -1136.274          36.000  
> 2024 06 26 15 02  3.0000000  0 18       0.000000000000
G02  23161619.027   121715196.826       -2542.414          27.500                                                                  
G03  20111274.665   105685455.504        -155.267          43.500    20111274.423    78920962.120        -115.738          38.875  
G04  20482786.010   107637811.312        2022.007          40.000    20482787.583    80378824.706        1510.060          38.875  
G06  22863770.624   120149942.264        3574.026          38.000    22863775.059    89722365.496        2669.010          39.000  
G09  22756698.319   119587334.599        3857.935          35.000    22756702.195    89302217.140        2880.874          36.875  
G17  23072203.333   121245252.056       -1426.924          38.000                                                                  
G19  22404999.619   117738989.439         -99.576          37.125                                                                  
G28  23771886.916   124922107.713       -1631.704          36.625                                                                  
G31  22073007.687   115994450.529         284.575          39.250                                                                  
R10  22503656.491   119957000.118        2454.280          25.750  
R02  22270605.492   118840189.714        3860.432          30.875  
R09  22998606.315   122811228.792        -449.916          35.875  
R01  19381418.550   103604703.913        1257.442          35.125  
R24  19766705.580   105701504.654        -923.996          39.250  
R17  21109027.548   112958719.467        3436.779          36.250  
R08  21166450.267   113345376.090       -2349.636          36.625  
E12  24130039.064   126804206.012        1474.329          37.375    24130040.706    94691458.002        1100.981          38.000  
E33                                     -1521.300          40.875                                       -1135.880          35.750  
> 2024 06 26 15 02  4.0000000  0 18       0.000000000000
G02  23162219.803   121718350.932       -2542.819          29.000                                                                  
G03  20111420.898   105686222.351        -155.719          43.375    20111420.376    78921534.771        -116.120          39.000  
G04  20482516.090   107636401.008        2021.457          39.875    20482519.478    80377771.546        1509.737          39.375  
G06  22863208.657   120146979.864        3573.595          37.750    22863211.137    89720153.304        2668.822          39.250  
G09  22756080.232   119584088.333        3857.365          35.125    22756084.876    89299792.970        2880.704          36.750  
G17  23072589.192   121247290.587       -1427.221          38.125                                                                  
G19  22405127.983   117739700.752        -100.227          36.375                                                                  
G28  23772312.004   124924351.135       -1632.227          36.000                                                                  
G31  22073072.811   115994777.711         283.836          39.500                                                                  
R10  22503325.775   119955166.208        2454.020          25.625  
R02  22269994.595   118836950.305        3860.157          30.625  
R09  22998801.898   122812300.620        -450.894          36.125  
R01  19381294.374   103604068.640        1257.141          35.000  
R24  19766995.254   105703051.240        -924.857          39.375  
R17  21108517.512   112955905.621        3435.942          37.250  
R08  21167002.043   113348348.809       -2349.995          36.500  
E12  24129874.054   126803343.303        1473.852          37.500    24129876.185    94690813.739        1100.906          38.000  
E33                                     -1521.706          40.875                                       -1136.237          36.375  
> 2024 06 26 15 02  5.0000000  0 18       0.000000000000
G02  23162820.998   121721505.584       -2542.842          30.000                                                                  
G03  20111566.851   105686989.901        -155.791          43.500    20111566.819    78922107.991        -116.571          39.125  
G04  20482250.009   107634991.489        2021.332          39.625    20482251.093    80376719.029        1509.178          39.125  
G06  22862645.434   120144018.036        3573.622          37.125    22862647.285    89717941.590        2668.603          39.375  
G09  22755464.030   119580842.569        3857.587          35.250    22755466.859    89297369.228        2880.505          37.125  
G17  23072974.632   121249329.866       -1427.744          37.750                                                                  
G19  22405264.025   117740413.035        -100.850          36.000                                                                  
G28  23772735.067   124926595.376       -1632.685          35.625                                                                  
G31  22073135.981   115995105.923         283.311          39.875                                                                  
R10  22502974.467   119953333.334        2453.513          25.625  
R02  22269379.230   118833711.453        3860.312          30.750  
R09  22999006.205   122813373.571        -451.406          36.375  
R01  19381175.224   103603434.222        1256.893          34.875  
R24  19767285.975   105704598.959        -925.444          39.250  
R17  21107989.957   112953092.740        3435.408          37.125  
R08  21167561.846   113351322.035       -2349.788          36.250  
E12  24129712.186   126802481.308        1473.767          37.500    24129713.130    94690170.077        1100.442          38.125  
E33                                     -1521.754          41.000                                       -1136.483          36.625  
> 2024 06 26 15 02  6.0000000  0 18       0.000000000000
G02  23163418.773   121724660.508       -2542.772          29.875                                                                  
G03  20111714.899   105687757.934        -156.057          43.375    20111712.423    78922681.503        -116.639          38.875  
G04  20481979.810   107633582.537        2020.878          39.375    20481982.639    80375666.900        1508.910          38.750  
G06  22862082.001   120141056.597        3573.548          37.375    22862084.411    89715730.134        2668.412          39.250  
G09  22754840.847   119577597.081        3857.552          35.500    22754849.260    89294945.657        2880.471          37.500  
G17  23073362.307   121251369.514       -1427.662          37.250                                                                  
G19  22405399.369   117741126.030        -101.217          36.250                                                                  
G28  23773164.831   124928840.163       -1632.827          35.250                                                                  
G31  22073198.034   115995434.863         282.934          39.625                                                                  
R10  22502644.936   119951501.332        2452.480          25.750  
R02  22268773.637   118830472.871        3860.357          31.625  
R09  22999213.164   122814447.378        -451.968          36.125  
R01  19381058.656   103602800.368        1256.568          34.750  
R24  19767572.088   105706147.557        -925.923          39.000  
R17  21107461.146   112950280.519        3435.213          36.625  
R08  21168121.789   113354295.528       -2349.647          36.500  
E12  24129547.037   126801619.706        1473.743          37.375    24129548.749    94689526.682        1100.384          37.875  
E33                                     -1521.722          41.250                                       -1136.541          36.625  
> 2024 06 26 15 02  7.0000000  0 18       0.000000000000
G02  23164017.735   121727815.478       -2543.073          28.750                                                                  
G03  20111860.992   105688526.135        -156.358          43.750    20111858.168    78923255.129        -116.532          38.750  
G04  20481710.378   107632173.843        2020.643          39.875    20481714.185    80374614.926        1508.979          38.750  
G06  22861522.267   120138095.244        3573.170          37.750    22861520.559    89713518.702        2668.438          39.250  
G09  22754226.041   119574351.651        3857.403          35.500    22754231.941    89292522.080        2880.710          37.625  
G17  23073750.749   121253409.396       -1427.889          37.000                                                                  
G19  22405535.131   117741839.465        -101.657          36.375                                                                  
G28  23773592.990   124931085.178       -1633.142          34.875                                                                  
G31  22073261.762   115995764.318         282.453          39.375                                                                  
R10  22502298.026   119949669.760        2452.373          26.000  
R02  22268165.392   118827234.379        3859.807          30.875  
R09  22999408.188   122815521.751        -452.825          36.250  
R01  19380943.206   103602166.870        1255.843          34.875  
R24  19767861.692   105707696.861        -926.879          39.000  
R17  21106927.867   112947468.706        3434.965          36.250  
R08  21168673.146   113357269.031       -2349.869          36.125  
E12  24129384.331   126800758.293        1473.230          37.375    24129384.368    94688883.399        1100.340          38.000  
E33                                     -1522.134          41.125                                       -1136.447          36.625  
> 2024 06 26 15 02  8.0000000  0 18       0.000000000000
G02  23164622.280   121730970.866       -2542.640          29.750                                                                  
G03  20112002.269   105689294.903        -156.367          43.250    20112004.191    78923829.211        -116.569          38.375  
G04  20481445.833   107630765.820        2020.437          40.125    20481446.638    80373563.483        1508.780          38.750  
G06  22860950.807   120135134.361        3573.259          37.250    22860957.406    89711307.660        2668.440          39.500  
G09  22753607.675   119571106.598        3857.485          35.000    22753614.482    89290098.844        2880.669          37.625  
G17  23074140.098   121255449.864       -1428.055          37.250                                                                  
G19  22405672.500   117742553.751        -101.877          36.375                                                                  
G28  23774023.661   124933330.840       -1633.120          35.875                                                                  
G31  22073320.535   115996094.650         282.108          39.250                                                                  
R10  22501949.301   119947839.093        2451.964          26.875  
R02  22267557.077   118823996.230        3860.184          30.625  
R09  22999606.283   122816597.112        -453.260          37.250  
R01  19380814.144   103601533.960        1256.005          35.125  
R24  19768149.551   105709247.189        -927.384          39.000  
R17  21106408.269   112944657.747        3434.636          36.125  
R08  21169224.154   113360242.921       -2349.685          36.625  
E12  24129219.810   126799897.412        1473.380          37.750    24129221.523    94688240.546        1100.213          38.000  
E33                                     -1521.935          40.625                                       -1136.484          36.750  
> 2024 06 26 15 02  9.0000000  0 18       0.000000000000
G02  23165223.126   121734126.865       -2542.683          31.375                                                                  
G03  20112152.551   105690064.485        -156.095          42.500    20112151.331    78924403.918        -116.642          38.500  
G04  20481174.935   107629358.705        2020.540          40.375    20481179.021    80372512.710        1508.830          39.125  
G06  22860390.376   120132174.155        3573.793          37.750    22860393.763    89709097.143        2668.555          39.375  
G09  22752988.750   119567862.213        3857.895          35.250    22752997.023    89287676.077        2880.993          37.500  
G17  23074531.123   121257491.135       -1428.022          37.500                                                                  
G19  22405802.818   117743269.125        -101.935          35.625                                                                  
G28  23774447.632   124935577.459       -1633.172          35.625                                                                  
G31  22073384.402   115996426.085         281.946          39.375                                                                  
R10  22501604.414   119946009.587        2452.012          27.750  
R02  22266944.784   118820758.734        3860.569          30.375  
R09  22999814.010   122817673.656        -453.319          36.750  
R01  19380701.625   103600902.034        1255.954          35.125  
R24  19768445.297   105710798.728        -927.465          38.875  
R17  21105886.018   112941847.870        3434.666          35.625  
R08  21169789.332   113363217.404       -2349.334          37.000  
E12  24129054.661   126799037.335        1473.626          37.625    24129056.583    94687598.287        1100.252          38.125  
E33                                     -1521.637          40.750                                       -1136.513          36.250  
> 2024 06 26 15 02 10.0000000  0 18       0.000000000000
G02  23165822.716   121737283.221       -2542.822          32.750                                                                  
G03  20112294.875   105690834.622        -156.784          42.625    20112297.704    78924978.998        -116.872          38.625  
G04  20480909.762   107627952.206        2019.919          40.750    20480911.125    80371462.425        1508.316          39.000  
G06  22859827.641   120129214.433        3573.084          37.500    22859830.540    89706886.945        2668.386          39.500  
G09  22752377.434   119564618.184        3857.577          34.750    22752379.634    89285253.610        2880.672          37.500  
G17  23074915.167   121259532.921       -1428.365          37.250                                                                  
G19  22405939.069   117743985.317        -102.803          35.625                                                                  
G28  23774875.511   124937824.666       -1633.796          35.125                                                                  
G31  22073451.970   115996758.323         281.160          39.000                                                                  
R10  22501261.971   119944180.994        2450.916          27.875  
R02  22266325.091   118817521.690        3859.874          30.375  
R09  23000013.362   122818751.121        -454.319          36.500  
R01  19380585.685   103600270.722        1255.305          34.250  
R24  19768728.689   105712351.228        -928.509          39.000  
R17  21105358.254   112939038.802        3433.587          35.625  
R08  21170331.964   113366192.239       -2349.788          36.375  
E12  24128893.002   126798177.764        1472.969          37.750    24128892.621    94686956.397        1100.030          38.250  
E33                                     -1522.105          40.750                                       -1136.662          36.125  
> 2024 06 26 15 02 11.0000000  0 18       0.000000000000
G02  23166420.421   121740439.122       -2543.226          32.875                                                                  
G03  20112444.877   105691604.459        -157.178          43.125    20112444.565    78925553.894        -117.312          38.500  
G04  20480643.890   107626545.503        2019.337          41.125    20480643.159    80370411.958        1507.946          38.875  
G06  22859264.836   120126254.274        3572.839          37.125    22859267.456    89704676.456        2668.050          39.500  
G09  22751756.066   119561373.701        3857.236          35.000    22751761.757    89282830.800        2880.219          37.625  
G17  23075303.469   121261574.415       -1428.672          37.375                                                                  
G19  22406077.484   117744701.473        -103.612          35.500                                                                  
G28  23775302.344   124940071.684       -1634.381          35.000                                                                  
G31  22073507.741   115997090.612         280.215          38.000                                                                  
R10  22500921.901   119942352.381        2450.068          28.750  
R02  22265728.852   118814284.104        3859.719          30.750  
R09  23000220.042   122819828.644        -455.094          36.625  
R01  19380459.485   103599639.212        1254.753          34.000  
R24  19769024.156   105713903.843        -929.357          38.625  
R17  21104827.837   112936229.644        3432.876          36.250  
R08  21170885.345   113369166.548       -2349.847          36.625  
E12  24128728.063   126797317.882        1472.482          37.625    24128729.496    94686314.262        1099.782          38.000  
E33                                     -1522.494          40.750                                       -1137.045          35.500  
> 2024 06 26 15 02 12.0000000  0 18       0.000000000000
G02  23167023.989   121743595.597       -2543.167          33.750                                                                  
G03  20112590.830   105692375.041        -157.534          42.625    20112591.077    78926129.309        -117.473          38.625  
G04  20480376.064   107625139.607        2019.097          41.000    20480375.403    80369362.111        1507.791          39.125  
G06  22858698.611   120123294.777        3572.818          37.125    22858703.883    89702466.426        2668.080          39.625  
G09  22751139.445   119558129.767        3857.199          34.875    22751144.717    89280408.364        2880.404          37.875  
G17  23075692.819   121263616.620       -1428.822          37.250                                                                  
G19  22406216.039   117745418.630        -104.154          35.125                                                                  
G28  23775728.897   124942319.463       -1634.401          35.375                                                                  
G31  22073568.677   115997423.918         279.526          37.875                                                                  
R10  22500573.734   119940524.825        2449.613          28.625  
R02  22265135.544   118811047.043        3859.963          30.875  
R09  23000405.852   122820907.340        -455.685          36.375  
R01  19380341.452   103599008.542        1254.315          34.125  
R24  19769319.903   105715457.690        -930.085          38.750  
R17  21104303.074   112933421.489        3432.410          36.250  
R08  21171449.058   113372141.453       -2350.044          37.125  
E12  24128565.776   126796458.708        1472.269          37.375    24128565.603    94685672.668        1099.671          38.000  
E33                                     -1522.566          41.000                                       -1136.670          35.375  
> 2024 06 26 15 02 13.0000000  0 18       0.000000000000
G02  23167624.277   121746752.497       -2543.067          31.750                                                                  
G03  20112734.969   105693146.207        -157.279          42.375    20112737.728    78926705.186        -117.327          38.375  
G04  20480110.262   107623734.428        2019.086          40.875    20480107.507    80368312.791        1507.794          38.625  
G06  22858135.527   120120335.782        3572.963          37.375    22858141.148    89700256.805        2668.067          39.750  
G09  22750522.265   119554886.287        3857.437          34.125    22750527.537    89277986.304        2880.546          37.750  
G17  23076079.795   121265659.498       -1428.930          37.250                                                                  
G19  22406350.615   117746136.653        -104.250          34.750                                                                  
G28  23776162.989   124944567.990       -1634.499          36.125                                                                  
G31  22073636.453   115997758.078         279.576          38.375                                                                  
R10  22500230.593   119938698.249        2449.275          28.500  
R02  22264517.388   118807810.486        3860.083          30.500  
R09  23000618.675   122821987.027        -456.084          35.875  
R01  19380223.209   103598378.566        1254.465          34.000  
R24  19769608.808   105717012.608        -930.399          39.250  
R17  21103791.433   112930614.149        3432.450          36.500  
R08  21172002.299   113375116.739       -2349.690          37.125  
E12  24128401.464   126795600.119        1472.319          37.000    24128401.920    94685031.524        1099.636          37.750  
E33                                     -1522.314          41.125                                       -1136.905          35.500  
> 2024 06 26 15 02 14.0000000  0 18       0.000000000000
G02  23168229.800   121749909.680       -2542.431          33.375                                                                  
G03  20112883.715   105693917.854        -157.156          42.750    20112884.450    78927281.446        -117.557          38.750  
G04  20479840.482   107622329.783        2019.268          40.500    20479840.868    80367263.894        1507.625          38.625  
G06  22857574.677   120117377.142        3573.250          37.250    22857578.134    89698047.435        2668.183          39.875  
G09  22749908.506   119551643.099        3857.857          35.250    22749910.358    89275564.441        2880.747          37.750  
G17  23076468.865   121267702.797       -1428.770          36.625                                                                  
G19  22406486.936   117746855.370        -104.164          35.000                                                                  
G28  23776590.170   124946817.067       -1634.477          35.875                                                                  
G31  22073701.089   115998093.035         279.258          37.875                                                                  
R10  22499893.385   119936872.423        2449.429          28.375  
R02  22263908.445   118804574.245        3860.338          29.750  
R09  23000815.095   122823067.561        -456.454          36.250  
R01  19380105.385   103597749.181        1254.541          33.875  
R24  19769899.320   105718568.428        -930.776          39.250  
R17  21103262.831   112927807.549        3432.124          36.125  
R08  21172562.870   113378092.301       -2349.162          36.625  
E12  24128237.921   126794741.974        1472.478          37.000    24128239.982    94684390.714        1099.599          37.875  
E33                                     -1522.232          40.875                                       -1136.722          36.250  
> 2024 06 26 15 02 15.0000000  0 18       0.000000000000
G02  23168826.039   121753067.094       -2543.227          33.375                                                                  
G03  20113030.227   105694689.853        -157.735          43.000    20113031.381    78927857.948        -118.043          38.625  
G04  20479573.633   107620925.628        2018.339          40.500    20479574.019    80366215.298        1507.224          38.625  
G06  22857011.105   120114418.785        3572.440          37.000    22857016.586    89695838.287        2667.714          40.000  
G09  22749290.977   119548400.124        3857.131          35.250    22749293.388    89273142.747        2880.152          37.750  
G17  23076859.261   121269746.474       -1429.486          37.000                                                                  
G19  22406625.282   117747574.763        -105.390          35.875                                                                  
G28  23777020.632   124949066.599       -1635.413          35.375                                                                  
G31  22073763.910   115998428.657         278.354          38.125                                                                  
R10  22499545.986   119935047.322        2448.018          28.625  
R02  22263318.767   118801338.202        3860.048          29.625  
R09  23001020.588   122824148.857        -457.457          36.250  
R01  19379994.262   103597120.282        1253.632          33.625  
R24  19770184.177   105720124.991        -931.756          39.250  
R17  21102736.741   112925001.591        3431.242          36.375  
R08  21173120.440   113381068.045       -2349.773          36.375  
E12  24128073.400   126793884.136        1472.153          37.000    24128075.671    94683750.152        1099.008          37.750  
E33                                     -1522.667          41.000                                       -1137.170          36.500  
> 2024 06 26 15 02 16.0000000  0 18       0.000000000000
G02  23169425.559   121756224.443       -2542.876          32.375                                                                  
G03  20113179.042   105695461.969        -157.582          43.250    20113178.521    78928434.489        -117.448          38.750  
G04  20479306.225   107619521.643        2018.455          40.375    20479306.751    80365166.852        1507.384          38.625  
G06  22856447.602   120111460.415        3572.908          36.875    22856452.246    89693629.086        2668.298          40.000  
G09  22748669.400   119545157.032        3857.818          34.750    22748676.557    89270720.959        2880.762          37.750  
G17  23077247.773   121271790.216       -1428.992          37.500                                                                  
G19  22406772.212   117748294.486        -105.275          36.125                                                                  
G28  23777444.672   124951316.329       -1635.288          36.125                                                                  
G31  22073832.105   115998764.678         278.333          38.625                                                                  
R10  22499208.498   119933222.671        2447.634          28.625  
R02  22262705.426   118798102.174        3859.990          30.125  
R09  23001218.404   122825230.630        -457.447          36.000  
R01  19379874.623   103596491.536        1253.867          33.875  
R24  19770476.573   105721682.070        -931.931          39.250  
R17  21102208.558   112922195.961        3431.291          36.500  
R08  21173682.895   113384043.641       -2349.141          36.375  
E12  24127911.881   126793026.409        1472.330          37.500    24127913.593    94683109.609        1099.499          38.000  
E33                                     -1522.488          41.625                                       -1136.625          36.500  
> 2024 06 26 15 02 17.0000000  0 18       0.000000000000
G02  23170022.077   121759382.627       -2542.973          32.250                                                                  
G03  20113327.439   105696235.114        -157.813          43.250    20113325.661    78929011.869        -117.942          38.750  
G04  20479039.726   107618118.765        2018.116          40.500    20479040.181    80364119.277        1507.083          38.750  
G06  22855880.679   120108502.991        3572.708          36.375    22855889.930    89691420.648        2667.905          39.875  
G09  22748052.709   119541914.848        3857.574          34.625    22748059.447    89268299.853        2880.583          37.875  
G17  23077643.195   121273835.019       -1429.413          38.500                                                                  
G19  22406903.717   117749015.536        -106.121          35.750                                                                  
G28  23777871.645   124953567.109       -1635.234          35.875                                                                  
G31  22073894.926   115999102.024         277.852          38.750                                                                  
R10  22498862.076   119931399.302        2447.374          28.000  
R02  22262102.416   118794866.949        3860.115          31.625  
R09  23001423.130   122826313.845        -458.054          36.125  
R01  19379756.241   103595863.983        1253.277          34.000  
R24  19770773.785   105723240.670        -932.555          39.000  
R17  21101689.448   112919391.575        3430.820          36.500  
R08  21174231.321   113387020.122       -2349.434          36.500  
E12  24127748.337   126792169.693        1471.936          37.375    24127749.491    94682469.851        1099.257          37.875  
E33                                     -1522.569          42.000                                       -1136.908          36.375  
> 2024 06 26 15 02 18.0000000  0 18       0.000000000000
G02  23170625.715   121762540.611       -2542.739          33.000                                                                  
G03  20113472.695   105697008.243        -157.945          43.625    20113472.662    78929589.169        -117.838          38.875  
G04  20478772.388   107616715.965        2018.020          40.375    20478773.123    80363071.742        1506.881          38.625  
G06  22855321.434   120105545.419        3572.659          36.625    22855326.776    89689212.058        2668.040          40.000  
G09  22747439.578   119538672.468        3857.663          34.875    22747442.826    89265878.582        2880.681          38.000  
G17  23078033.522   121275879.787       -1429.385          38.875                                                                  
G19  22407036.828   117749736.751        -106.274          34.750                                                                  
G28  23778302.944   124955818.053       -1635.791          36.250                                                                  
G31  22073957.468   115999439.633         277.357          38.375                                                                  
R10  22498510.280   119929576.288        2446.705          27.500  
R02  22261505.479   118791631.534        3860.324          31.625  
R09  23001635.953   122827397.400        -458.611          36.625  
R01  19379639.324   103595236.449        1253.386          33.750  
R24  19771065.972   105724799.728        -933.337          39.125  
R17  21101171.107   112916587.407        3430.437          37.000  
R08  21174788.402   113389996.333       -2349.152          36.750  
E12  24127585.282   126791312.884        1472.225          37.625    24127586.576    94681830.044        1099.325          38.125  
E33                                     -1522.544          42.125                                       -1136.954          36.000  
> 2024 06 26 15 02 19.0000000  0 18       0.000000000000
G02  23171225.933   121765698.667       -2543.196          33.125                                                                  
G03  20113617.392   105697781.593        -158.528          43.625    20113619.802    78930166.680        -118.365          38.875  
G04  20478504.911   107615313.498        2017.245          40.375    20478505.995    80362024.423        1506.488          38.500  
G06  22854752.417   120102587.980        3572.259          36.625    22854763.902    89687003.600        2667.580          40.125  
G09  22746822.817   119535430.135        3857.201          35.125    22746825.786    89263457.376        2880.252          38.000  
G17  23078421.475   121277924.824       -1430.280          38.625                                                                  
G19  22407173.288   117750458.504        -107.242          34.375                                                                  
G28  23778728.939   124958069.235       -1636.336          35.375                                                                  
G31  22074018.892   115999777.798         276.464          38.000                                                                  
R10  22498188.079   119927753.804        2445.716          27.125  
R02  22260894.372   118788396.172        3859.674          30.250  
R09  23001831.116   122828481.585        -459.706          36.500  
R01  19379518.639   103594609.326        1252.373          33.625  
R24  19771358.438   105726359.429        -934.383          39.375  
R17  21100645.925   112913783.732        3429.411          37.125  
R08  21175337.246   113392972.640       -2349.723          36.375  
E12  24127422.437   126790456.346        1471.354          37.625    24127423.381    94681190.384        1098.958          38.125  
E33                                     -1523.151          42.000                                       -1137.403          35.750  
> 2024 06 26 15 02 20.0000000  0 18       0.000000000000
G02  23171830.269   121768857.401       -2542.793          32.875                                                                  
G03  20113767.394   105698555.810        -158.333          43.375    20113767.501    78930744.853        -118.334          39.000  
G04  20478237.853   107613911.963        2017.433          40.125    20478239.356    80360977.859        1506.329          38.625  
G06  22854192.753   120099631.328        3572.430          36.375    22854201.516    89684795.724        2667.778          40.000  
G09  22746204.451   119532188.526        3857.469          35.375    22746209.165    89261036.681        2880.665          38.000  
G17  23078809.987   121279970.664       -1429.957          38.125                                                                  
G19  22407312.541   117751181.377        -107.195          35.125                                                                  
G28  23779158.005   124960321.386       -1636.278          35.500                                                                  
G31  22074083.458   116000117.112         276.456          38.250                                                                  
R10  22497844.030   119925932.494        2445.809          27.250  
R02  22260276.145   118785161.457        3860.312          30.625  
R09  23002040.798   122829566.995        -459.921          36.625  
R01  19379399.279   103593983.154        1252.707          33.625  
R24  19771646.436   105727920.384        -934.365          39.125  
R17  21100127.304   112910981.150        3429.593          37.250  
R08  21175892.722   113395949.587       -2349.281          36.125  
E12  24127260.638   126789600.642        1471.480          37.625    24127260.466    94680551.414        1098.755          37.875  
E33                                     -1522.730          41.500                                       -1137.030          35.625  
> 2024 06 26 15 02 21.0000000  0 18       0.000000000000
G02  23172427.416   121772016.187       -2542.722          32.625                                                                  
G03  20113912.580   105699330.253        -158.429          43.375    20113914.501    78931323.152        -118.313          38.875  
G04  20477971.632   107612510.759        2017.056          40.375    20477972.646    80359931.484        1506.192          38.625  
G06  22853627.925   120096674.797        3572.440          36.750    22853638.851    89682587.927        2667.638          40.000  
G09  22745590.273   119528946.912        3857.726          35.250    22745592.195    89258616.033        2880.609          38.000  
G17  23079201.011   121282016.741       -1430.019          39.000                                                                  
G19  22407448.653   117751904.766        -107.423          33.875                                                                  
G28  23779590.003   124962573.855       -1636.587          36.000                                                                  
G31  22074149.210   116000456.920         276.074          38.625                                                                  
R10  22497504.868   119924111.801        2445.114          27.250  
R02  22259668.528   118781926.855        3860.043          31.750  
R09  23002235.822   122830653.010        -460.217          36.625  
R01  19379290.459   103593357.335        1252.333          33.875  
R24  19771934.434   105729482.021        -934.976          39.000  
R17  21099602.262   112908179.056        3429.328          37.250  
R08  21176451.757   113398926.567       -2349.376          35.875  
E12  24127097.234   126788745.080        1471.606          37.625    24127097.830    94679912.523        1098.780          37.875  
E33                                     -1522.895          41.750                                       -1137.264          35.750  
> 2024 06 26 15 02 22.0000000  0 18       0.000000000000
G02  23173033.358   121775175.391       -2543.840          31.875                                                                  
G03  20114064.955   105700105.228        -159.299          43.750    20114062.060    78931901.869        -119.008          38.750  
G04  20477704.783   107611110.154        2016.186          40.375    20477706.216    80358885.573        1505.602          38.875  
G06  22853068.819   120093718.677        3572.032          37.000    22853076.255    89680380.446        2667.113          40.250  
G09  22744969.952   119525705.683        3857.111          35.375    22744975.713    89256195.644        2880.234          38.250  
G17  23079586.312   121284063.351       -1430.955          38.500                                                                  
G19  22407584.764   117752628.952        -108.865          34.375                                                                  
G28  23780017.254   124964826.917       -1637.320          35.875                                                                  
G31  22074213.288   116000797.569         274.954          38.375                                                                  
R10  22497154.118   119922291.883        2443.855          27.375  
R02  22259066.216   118778692.601        3859.359          32.000  
R09  23002453.461   122831739.979        -461.487          37.125  
R01  19379177.103   103592732.146        1251.475          34.125  
R24  19772229.134   105731044.610        -936.276          39.125  
R17  21099077.708   112905377.764        3428.155          37.250  
R08  21176995.716   113401903.824       -2349.738          35.875  
E12  24126934.459   126787890.053        1470.627          37.875    24126936.590    94679274.012        1098.309          38.000  
E33                                     -1523.577          41.500                                       -1137.770          35.750  
> 2024 06 26 15 02 23.0000000  0 18       0.000000000000
G02  23173633.296   121778334.503       -2542.508          31.000                                                                  
G03  20114213.212   105700880.364        -158.822          43.875    20114209.689    78932480.728        -118.804          38.750  
G04  20477438.981   107609709.795        2016.677          40.500    20477439.996    80357839.863        1505.810          38.625  
G06  22852506.503   120090762.635        3572.418          37.250    22852514.009    89678172.991        2667.681          40.500  
G09  22744355.355   119522464.472        3857.618          35.750    22744358.743    89253775.257        2880.609          38.250  
G17  23079977.826   121286110.102       -1430.357          38.750                                                                  
G19  22407723.040   117753353.503        -107.960          34.000                                                                  
G28  23780445.483   124967080.210       -1636.935          35.500                                                                  
G31  22074278.761   116001138.678         275.052          38.875                                                                  
R10  22496815.514   119920472.498        2444.521          27.250  
R02  22258463.346   118775458.361        3860.096          31.500  
R09  23002659.443   122832827.465        -461.515          37.625  
R01  19379057.743   103592107.263        1251.540          34.375  
R24  19772520.273   105732607.808        -936.214          39.250  
R17  21098552.177   112902576.868        3428.598          37.250  
R08  21177563.895   113404881.030       -2348.767          36.125  
E12  24126771.892   126787035.159        1471.215          37.750    24126772.139    94678635.632        1098.619          38.125  
E33                                     -1523.048          41.500                                       -1137.182          35.750  
> 2024 06 26 15 02 24.0000000  0 18       0.000000000000
G02  23174234.701   121781494.582       -2543.105          30.125                                                                  
G03  20114355.815   105701656.571        -159.280          43.500    20114357.458    78933060.355        -119.063          38.875  
G04  20477170.457   107608310.618        2016.132          40.125    20477173.217    80356795.042        1505.247          38.875  
G06  22851943.978   120087807.584        3572.029          37.375    22851951.274    89675966.283        2667.410          40.375  
G09  22743736.082   119519224.159        3857.515          35.750    22743743.239    89251355.537        2880.363          38.000  
G17  23080368.990   121288157.960       -1430.937          38.500                                                                  
G19  22407857.407   117754079.481        -108.901          32.750                                                                  
G28  23780874.967   124969334.695       -1637.582          35.250                                                                  
G31  22074345.979   116001481.154         274.326          39.375                                                                  
R10  22496475.165   119918654.488        2443.691          26.875  
R02  22257859.708   118772225.053        3859.789          31.250  
R09  23002858.655   122833916.441        -462.231          37.500  
R01  19378935.033   103591483.516        1251.271          34.500  
R24  19772812.111   105734172.580        -937.213          38.750  
R17  21098028.251   112899777.314        3427.685          36.875  
R08  21178106.876   113407859.218       -2349.464          35.875  
E12  24126611.141   126786181.324        1470.821          37.500    24126610.200    94677998.047        1098.131          38.000  
E33  24404811.271   128248148.531       -1523.210          41.250    24404815.007    95769735.994       -1137.855          35.625  
> 2024 06 26 15 02 25.0000000  0 19       0.000000000000
G02  23174832.894   121784654.381       -2543.028          30.375                                                                  
G03  20114505.468   105702432.704        -159.709          43.000    20114504.877    78933639.913        -119.284          39.000  
G04  20476908.076   107606911.439        2015.592          40.250    20476907.833    80355750.184        1504.922          38.875  
G06  22851383.128   120084852.319        3571.765          37.375    22851389.028    89673759.443        2667.182          40.500  
G09  22743121.624   119515983.574        3857.136          35.500    22743125.431    89248935.638        2880.317          38.375  
G17  23080757.153   121290205.719       -1431.209          39.000                                                                  
G19  22407989.051   117754805.604        -109.915          32.125                                                                  
G28  23781300.195   124971589.167       -1638.060          34.625                                                                  
G31  22074411.731   116001823.838         273.691          39.250                                                                  
R10  22496132.791   119916836.743        2442.911          26.750  
R02  22257255.162   118768991.484        3859.763          31.250  
R09  23003060.240   122835005.722        -463.105          37.375  
R01  19378807.228   103590859.805        1250.715          34.125  
R24  19773101.854   105735737.670        -937.988          38.500  
R17  21097508.793   112896977.892        3427.014          37.375  
R08  21178665.632   113410837.080       -2349.657          35.750  
E12  24126444.526   126785327.375        1470.498          37.750    24126447.285    94677360.337        1098.107          38.125  
E19                                      1962.835          39.125                                         753.648          12.125  
E33  24405222.677   128250288.709       -1523.676          41.375    24405222.295    95771334.164       -1137.844          35.625  
> 2024 06 26 15 02 26.0000000  0 19       0.000000000000
G02  23175440.302   121787814.473       -2542.549          31.000                                                                  
G03  20114652.399   105703209.256        -159.204          43.125    20114652.855    78934219.810        -118.796          39.000  
G04  20476640.110   107605512.794        2015.944          40.125    20476641.613    80354705.695        1505.586          39.125  
G06  22850823.534   120081897.384        3572.461          37.375    22850826.921    89671552.822        2667.810          40.375  
G09  22742502.072   119512743.280        3857.711          36.000    22742509.926    89246515.931        2880.861          38.250  
G17  23081147.479   121292253.914       -1430.899          39.375                                                                  
G19  22408134.028   117755532.424        -109.799          32.250                                                                  
G28  23781733.937   124973844.174       -1637.782          34.875                                                                  
G31  22074476.227   116002167.247         273.880          39.250                                                                  
R10  22495796.839   119915019.734        2443.108          26.750  
R02  22256646.289   118765758.237        3860.200          31.500  
R09  23003266.572   122836095.809        -462.808          37.125  
R01  19378708.599   103590236.629        1251.120          34.500  
R24  19773396.414   105737303.557        -937.597          38.625  
R17  21096978.655   112894179.149        3427.293          37.500  
R08  21179224.458   113413815.158       -2348.767          35.750  
E12  24126283.844   126784473.841        1471.010          37.750    24126285.138    94676722.948        1098.607          38.125  
E19                                      1964.050          38.000                                                                  
E33  24405628.081   128252429.220       -1523.325          41.250    24405630.072    95772932.548       -1137.149          35.625  
> 2024 06 26 15 02 27.0000000  0 19       0.000000000000
G02  23176039.961   121790974.791       -2543.354          32.000                                                                  
G03  20114801.005   105703986.170        -159.707          43.375    20114801.880    78934799.992        -119.414          39.000  
G04  20476370.469   107604114.591        2015.247          39.875    20476375.602    80353661.610        1504.829          39.125  
G06  22850258.007   120078942.761        3571.635          37.375    22850264.465    89669346.445        2667.223          40.375  
G09  22741884.752   119509503.173        3857.235          35.875    22741892.468    89244096.358        2880.527          38.125  
G17  23081539.481   121294302.444       -1431.456          39.625                                                                  
G19  22408274.327   117756259.826        -110.345          33.000                                                                  
G28  23782165.097   124976099.591       -1638.331          35.250                                                                  
G31  22074543.725   116002511.321         272.886          39.250                                                                  
R10  22495445.741   119913203.405        2442.035          26.750  
R02  22256049.351   118762525.114        3859.696          31.500  
R09  23003465.574   122837186.701        -464.098          37.625  
R01  19378592.171   103589613.924        1250.291          34.875  
R24  19773692.928   105738870.328        -939.102          38.625  
R17  21096464.502   112891381.061        3426.286          37.875  
R08  21179777.421   113416793.413       -2349.358          35.375  
E12  24126122.046   126783620.661        1470.314          37.750    24126122.850    94676085.846        1098.027          38.250  
E19                                      1963.293          38.250                                                                  
E33  24406036.207   128254569.972       -1523.582          41.375    24406036.662    95774531.166       -1137.661          35.625  
> 2024 06 26 15 02 28.0000000  0 19       0.000000000000
G02  23176642.552   121794135.106       -2542.905          32.500                                                                  
G03  20114947.727   105704763.375        -160.040          43.125    20114948.671    78935380.362        -119.429          39.125  
G04  20476105.644   107602716.738        2015.045          39.875    20476109.381    80352617.756        1504.730          39.250  
G06  22849696.877   120075988.266        3571.789          37.500    22849702.498    89667140.173        2667.312          40.500  
G09  22741271.133   119506263.175        3857.267          36.000    22741275.777    89241676.895        2880.446          38.125  
G17  23081931.064   121296351.241       -1431.552          40.125                                                                  
G19  22408409.252   117756987.820        -110.695          33.375                                                                  
G28  23782593.605   124978355.377       -1638.516          35.500                                                                  
G31  22074610.943   116002855.960         272.591          39.250                                                                  
R10  22495105.461   119911387.588        2442.195          26.625  
R02  22255448.575   118759292.076        3860.057          31.500  
R09  23003670.370   122838278.202        -464.462          37.125  
R01  19378473.719   103588991.594        1249.887          35.125  
R24  19773979.252   105740437.754        -939.472          38.625  
R17  21095946.230   112888583.472        3425.964          38.000  
R08  21180341.203   113419771.727       -2349.230          35.875  
E12  24125960.177   126782767.704        1470.237          37.750    24125960.005    94675448.896        1097.936          38.125  
E19                                      1963.325          38.500                                                                  
E33  24406441.401   128256710.889       -1523.547          41.000    24406444.998    95776129.927       -1137.727          35.875  
> 2024 06 26 15 02 29.0000000  0 19       0.000000000000
G02  23177240.746   121797296.243       -2543.279          32.000                                                                  
G03  20115093.541   105705541.528        -160.529          43.125    20115097.207    78935961.442        -119.803          39.000  
G04  20475840.192   107601319.924        2014.459          39.875    20475845.045    80351574.710        1504.159          39.000  
G06  22849133.654   120073034.639        3571.262          37.625    22849140.462    89664934.562        2666.852          40.125  
G09  22740655.140   119503023.948        3856.986          36.500    22740658.806    89239258.021        2880.152          37.875  
G17  23082320.972   121298401.008       -1431.943          40.125                                                                  
G19  22408549.133   117757717.000        -111.449          33.375                                                                  
G28  23783018.134   124980612.227       -1639.282          35.625                                                                  
G31  22074676.347   116003201.853         271.669          39.000                                                                  
R10  22494772.651   119909573.178        2441.087          26.250  
R02  22254841.866   118756059.894        3859.403          31.625  
R09  23003870.628   122839371.045        -465.318          37.125  
R01  19378352.754   103588370.296        1249.469          35.125  
R24  19774274.440   105742006.634        -940.468          38.625  
R17  21095416.232   112885787.106        3425.238          37.750  
R08  21180893.188   113422750.808       -2349.522          35.875  
E12  24125799.147   126781915.674        1469.775          37.750    24125798.137    94674812.643        1097.572          38.000  
E19                                      1962.865          38.500                                                                  
E33  24406847.572   128258852.693       -1524.062          40.750    24406852.495    95777729.339       -1138.163          35.875  
> 2024 06 26 15 02 30.0000000  0 19       0.000000000000
G02  23177841.662   121800457.216       -2543.136          30.625                                                                  
G03  20115247.172   105706319.689        -160.403          43.625    20115244.766    78936542.548        -119.761          39.000  
G04  20475575.925   107599923.250        2014.395          40.375    20475577.707    80350531.714        1504.155          39.375  
G06  22848576.224   120070080.960        3571.380          38.250    22848578.076    89662728.886        2666.880          40.250  
G09  22740037.053   119499784.585        3857.294          36.250    22740042.325    89236839.009        2880.351          37.875  
G17  23082710.949   121300450.822       -1432.046          40.000                                                                  
G19  22408686.850   117758446.484        -111.657          33.750                                                                  
G28  23783455.018   124982869.170       -1639.270          35.625                                                                  
G31  22074739.028   116003548.119         271.173          38.750                                                                  
R10  22494430.347   119907759.095        2440.560          26.000  
R02  22254242.764   118752827.565        3859.569          31.250  
R09  23004082.753   122840464.354        -465.737          37.125  
R01  19378251.752   103587749.151        1249.467          35.625  
R24  19774562.996   105743575.965        -940.924          38.625  
R17  21094898.798   112882991.049        3424.850          38.125  
R08  21181448.105   113425729.731       -2349.333          35.625  
E12  24125637.208   126781063.690        1469.616          37.875    24125635.431    94674176.412        1097.450          38.000  
E19                                      1963.186          38.500                                                                  
E33  24407258.141   128260994.445       -1524.137          40.625    24407258.387    95779328.670       -1138.044          35.500  
> 2024 06 26 15 02 31.0000000  0 19       0.000000000000
G02  23178438.948   121803618.664       -2543.293          28.875                                                                  
G03  20115394.941   105707098.426        -160.746          43.750    20115392.954    78937124.087        -120.142          39.125  
G04  20475312.706   107598527.193        2014.046          40.500    20475312.464    80349489.206        1503.914          39.250  
G06  22848016.072   120067127.682        3571.415          38.125    22848016.109    89660523.516        2666.926          40.250  
G09  22739424.480   119496545.593        3857.111          36.625    22739428.007    89234420.295        2880.260          38.000  
G17  23083099.252   121302501.153       -1432.287          39.625                                                                  
G19  22408827.918   117759176.789        -112.375          34.375                                                                  
G28  23783882.618   124985126.687       -1639.191          35.125                                                                  
G31  22074807.851   116003895.164         270.932          39.125                                                                  
R10  22494075.828   119905945.919        2439.875          26.125  
R02  22253630.611   118749595.626        3859.443          31.125  
R09  23004288.736   122841558.583        -466.379          37.500  
R01  19378121.573   103587128.634        1249.150          35.875  
R24  19774865.095   105745146.237        -941.666          38.750  
R17  21094372.988   112880195.682        3424.600          38.125  
R08  21182008.886   113428708.987       -2349.395          36.000  
E12  24125474.782   126780212.184        1469.509          38.000    24125473.702    94673540.566        1097.229          38.125  
E19                                      1962.914          38.375                                                                  
E33  24407663.475   128263136.607       -1524.165          40.250    24407666.304    95780928.362       -1138.225          35.875  
> 2024 06 26 15 02 32.0000000  0 19       0.000000000000
G02  23179034.769   121806780.053       -2542.428          26.125                                                                  
G03  20115544.594   105707877.420        -160.098          43.625    20115541.420    78937705.804        -119.596          38.875  
G04  20475046.206   107597131.494        2014.424          40.375    20475047.290    80348446.989        1504.168          39.625  
G06  22847451.522   120064174.627        3571.755          37.500    22847453.653    89658318.328        2667.100          40.125  
G09  22738806.393   119493306.727        3857.726          36.625    22738810.478    89232001.692        2880.451          38.125  
G17  23083490.904   121304551.759       -1431.794          39.750                                                                  
G19  22408973.383   117759907.618        -112.224          35.625                                                                  
G28  23784311.265   124987384.645       -1639.169          35.250                                                                  
G31  22074871.021   116004242.813         270.974          38.875                                                                  
R10  22493754.325   119904133.345        2439.839          25.875  
R02  22253018.177   118746363.801        3860.329          30.625  
R09  23004502.466   122842653.459        -466.250          37.250  
R01  19378010.310   103586508.492        1249.724          36.000  
R24  19775163.842   105746717.234        -941.567          38.875  
R17  21093851.086   112877400.873        3424.774          37.625  
R08  21182567.432   113431688.298       -2348.519          35.875  
E12  24125313.332   126779360.932        1470.139          38.000    24125311.973    94672904.898        1097.593          38.250  
E19                                      1963.376          38.500                                         751.837           9.375  
E33  24408071.112   128265278.959       -1523.454          39.875    24408074.150    95782528.183       -1137.822          35.750  
> 2024 06 26 15 02 33.0000000  0 19       0.000000000000
G02  23179637.988   121809941.916       -2543.446          26.500                                                                  
G03  20115692.991   105708656.925        -161.418          43.875    20115688.979    78938287.881        -120.461          38.625  
G04  20474779.567   107595736.376        2013.246          40.500    20474781.488    80347405.156        1503.527          39.625  
G06  22846888.927   120061221.906        3570.871          37.375    22846891.616    89656113.369        2666.629          39.875  
G09  22738190.191   119490068.176        3856.760          36.250    22738193.718    89229583.279        2880.052          38.125  
G17  23083879.277   121306602.860       -1432.960          39.000                                                                  
G19  22409108.797   117760639.207        -113.642          36.125                                                                  
G28  23784733.351   124989643.144       -1640.427          35.000                                                                  
G31  22074938.658   116004591.233         269.527          39.125                                                                  
R10  22493387.591   119902321.417        2439.302          25.625  
R02  22252418.029   118743132.322        3859.198          30.250  
R09  23004687.648   122843749.209        -467.951          36.625  
R01  19377893.952   103585888.983        1248.390          35.750  
R24  19775453.726   105748289.155        -943.024          39.250  
R17  21093329.534   112874606.837        3423.175          38.000  
R08  21183121.931   113434667.929       -2349.745          35.500  
E12  24125150.905   126778510.171        1468.842          38.000    24125149.965    94672269.561        1097.001          38.125  
E19                                      1962.401          38.500                                        1465.214          24.125  
E33  24408478.470   128267421.721       -1524.520          39.625    24408482.904    95784128.280       -1138.447          35.375  
> 2024 06 26 15 02 34.0000000  0 19       0.000000000000
G02  23180246.652   121813104.488       -2543.354          28.500                                                                  
G03  20115843.412   105709437.322        -160.818          43.875    20115837.516    78938870.675        -120.359          38.375  
G04  20474513.416   107594342.269        2013.662          40.125    20474516.385    80346364.142        1503.394          39.625  
G06  22846326.052   120058270.047        3571.496          37.625    22846330.487    89653909.063        2666.810          40.000  
G09  22737574.477   119486830.374        3857.269          36.500    22737577.655    89227165.443        2880.372          38.125  
G17  23084269.184   121308654.840       -1432.418          39.125                                                                  
G19  22409250.842   117761371.950        -113.312          36.500                                                                  
G28  23785168.630   124991902.650       -1640.095          35.500                                                                  
G31  22075005.946   116004940.844         269.800          39.000                                                                  
R10  22493074.046   119900510.844        2439.345          25.250  
R02  22251827.095   118739901.535        3859.770          29.875  
R09  23004890.280   122844846.298        -467.983          36.000  
R01  19377773.476   103585270.507        1248.591          35.625  
R24  19775746.121   105749862.447        -943.122          39.375  
R17  21092809.447   112871813.949        3423.577          38.375  
R08  21183686.341   113437648.274       -2349.001          35.500  
E12  24124989.665   126777660.266        1469.449          38.000    24124988.306    94671634.936        1097.030          38.375  
E19                                      1962.916          38.250                                        1465.756          33.500  
E33  24408887.503   128269565.294       -1524.004          39.750    24408889.634    95785729.028       -1138.331          35.375  
> 2024 06 26 15 02 35.0000000  0 19       0.000000000000
G02  23180851.197   121816266.603       -2543.092          29.500                                                                  
G03  20115989.156   105710217.488        -161.032          43.875    20115986.261    78939453.257        -120.350          38.625  
G04  20474247.265   107592947.998        2013.451          40.125    20474251.141    80345322.954        1503.347          39.875  
G06  22845765.202   120055317.811        3571.578          37.250    22845768.380    89651704.469        2666.939          39.750  
G09  22736958.065   119483592.127        3857.484          36.500    22736960.894    89224747.294        2880.377          37.875  
G17  23084659.720   121310706.574       -1432.553          39.375                                                                  
G19  22409390.094   117762104.740        -113.666          37.125                                                                  
G28  23785598.254   124994161.969       -1640.208          36.375                                                                  
G31  22075071.559   116005290.515         269.504          38.750                                                                  
R10  22492732.370   119898700.451        2438.385          26.000  
R02  22251205.448   118736670.303        3860.014          28.375  
R09  23005103.940   122845943.491        -468.237          36.250  
R01  19377668.914   103584651.839        1248.341          35.375  
R24  19776038.657   105751435.875        -943.594          39.250  
R17  21092286.080   112869021.012        3423.430          38.000  
R08  21184243.910   113440628.117       -2348.600          35.875  
E12  24124826.750   126776810.105        1469.438          38.000    24124827.555    94671000.056        1097.193          38.250  
E19                                      1962.987          38.000                                        1465.517          33.750  
E33  24409298.491   128271708.528       -1523.955          40.125    24409297.690    95787329.498       -1138.393          35.000  
> 2024 06 26 15 02 36.0000000  0 19       0.000000000000
G02  23181452.951   121819429.675       -2543.930          29.625                                                                  
G03  20116137.832   105710998.746        -162.139          43.250    20116134.937    78940036.663        -121.125          38.625  
G04  20473981.673   107591554.939        2012.036          40.000    20473987.154    80344282.639        1502.801          39.875  
G06  22845200.512   120052366.608        3570.383          36.625    22845207.739    89649500.657        2666.204          40.125  
G09  22736341.234   119480354.850        3856.460          35.875    22736345.320    89222329.821        2880.036          37.625  
G17  23085047.604   121312759.407       -1433.671          39.000                                                                  
G19  22409529.975   117762838.909        -115.233          37.500                                                                  
G28  23786026.971   124996422.491       -1641.553          36.125                                                                  
G31  22075138.847   116005641.623         267.864          38.875                                                                  
R10  22492369.754   119896891.440        2436.331          25.375  
R02  22250584.988   118733440.055        3858.990          27.125  
R09  23005305.804   122847042.158        -469.609          36.125  
R01  19377540.131   103584034.426        1247.190          35.500  
R24  19776337.754   105753010.871        -945.268          39.250  
R17  21091755.593   112866229.473        3421.852          37.500  
R08  21184793.592   113443608.921       -2349.684          35.625  
E12  24124665.580   126775961.045        1468.109          38.000    24124664.709    94670365.990        1096.502          38.125  
E19                                      1961.552          38.125                                        1465.026          33.750  
E33  24409702.498   128273852.779       -1525.098          40.125    24409707.352    95788930.691       -1138.779          35.250  
> 2024 06 26 15 02 37.0000000  0 19       0.000000000000
G02  23182048.771   121822592.991       -2543.136          28.750                                                                  
G03  20116287.275   105711780.443        -161.858          43.375    20116283.683    78940620.377        -120.692          38.500  
G04  20473716.918   107590162.382        2012.459          40.125    20473721.562    80343242.778        1502.748          40.000  
G06  22844636.102   120049415.702        3571.014          35.625    22844645.144    89647297.076        2666.636          40.375  
G09  22735725.102   119477117.839        3857.088          36.000    22735729.816    89219912.603        2880.156          38.000  
G17  23085442.049   121314812.663       -1433.146          39.250                                                                  
G19  22409671.531   117763573.719        -114.890          37.500                                                                  
G28  23786460.435   124998683.517       -1641.105          35.750                                                                  
G31  22075203.832   116005993.432         267.858          38.625                                                                  
R10  22492045.390   119895083.127        2437.548          26.000  
R02  22249972.275   118730210.068        3859.224          27.500  
R09  23005519.744   122848141.735        -469.723          35.625  
R01  19377421.889   103583417.568        1247.569          35.625  
R24  19776635.804   105754586.749        -945.218          39.125  
R17  21091232.366   112863438.613        3421.959          37.625  
R08  21185354.512   113446589.967       -2349.056          35.750  
E12  24124503.362   126775112.369        1468.827          38.125    24124503.609    94669732.250        1096.803          38.000  
E19                                      1962.452          38.000                                        1465.109          33.875  
E33  24410110.764   128275997.345       -1524.500          39.875    24410113.523    95790532.164       -1138.583          35.500  
> 2024 06 26 15 02 38.0000000  0 19       0.000000000000
G02  23182655.132   121825756.061       -2543.537          29.125                                                                  
G03  20116436.370   105712562.095        -162.458          43.500    20116432.777    78941204.091        -121.391          38.750  
G04  20473455.234   107588769.870        2011.616          40.500    20473456.318    80342202.885        1502.259          40.125  
G06  22844073.367   120046464.689        3570.189          36.125    22844084.293    89645093.385        2666.193          40.375  
G09  22735110.296   119473880.632        3856.240          35.625    22735114.241    89217495.184        2879.800          37.625  
G17  23085829.793   121316865.868       -1433.918          38.625                                                                  
G19  22409804.781   117764308.766        -115.941          36.750                                                                  
G28  23786887.756   125000944.582       -1641.918          35.250                                                                  
G31  22075272.585   116006345.472         266.942          38.625                                                                  
R10  22491707.065   119893275.206        2435.854          26.250  
R02  22249364.868   118726979.932        3858.804          26.125  
R09  23005717.071   122849241.570        -470.826          35.750  
R01  19377312.231   103582800.750        1246.647          35.375  
R24  19776928.130   105756163.040        -946.371          39.500  
R17  21090718.771   112860647.943        3420.940          37.625  
R08  21185912.640   113449570.724       -2349.429          35.625  
E12  24124341.913   126774263.640        1467.931          38.125    24124342.020    94669098.446        1096.282          37.750  
E19                                      1961.623          38.000                                        1465.133          33.750  
E33  24410517.494   128278141.794       -1525.202          39.750    24410522.626    95792133.480       -1138.712          35.375  
> 2024 06 26 15 02 39.0000000  0 19       0.000000000000
G02  23183257.094   121828919.424       -2544.067          29.625                                                                  
G03  20116583.231   105713344.197        -162.832          43.750    20116582.012    78941788.117        -121.568          39.125  
G04  20473189.572   107587377.910        2011.125          41.125    20473191.354    80341163.450        1501.701          39.875  
G06  22843516.915   120043514.029        3570.051          36.875    22843522.257    89642889.970        2665.838          40.250  
G09  22734488.998   119470643.660        3856.290          35.250    22734497.341    89215077.977        2879.779          36.750  
G17  23086220.887   121318919.548       -1434.468          39.000                                                                  
G19  22409946.966   117765044.539        -116.696          37.000                                                                  
G28  23787322.057   125003206.194       -1642.416          35.875                                                                  
G31  22075336.872   116006698.305         266.198          38.625                                                                  
R10  22491378.582   119891467.948        2435.169          26.750  
R02  22248770.443   118723750.093        3858.414          24.875  
R09  23005920.122   122850342.282        -471.690          35.625  
R01  19377199.852   103582184.551        1245.812          35.750  
R24  19777222.689   105757740.218        -947.300          38.875  
R17  21090201.616   112857857.986        3420.333          38.125  
R08  21186463.788   113452551.775       -2350.061          35.125  
E12  24124180.673   126773415.350        1467.479          38.250    24124180.221    94668464.968        1095.992          37.750  
E19                                      1961.135          38.125                                        1464.791          34.250  
E33  24410928.272   128280286.596       -1525.612          40.000    24410929.146    95793735.138       -1139.201          35.250  
> 2024 06 26 15 02 40.0000000  0 19       0.000000000000
G02  23183855.567   121832083.494       -2543.705          29.500                                                                  
G03  20116733.722   105714127.156        -162.882          44.000    20116731.386    78942372.812        -121.736          39.250  
G04  20472924.119   107585986.892        2011.042          40.875    20472926.739    80340124.700        1501.808          40.000  
G06  22842956.762   120040564.107        3570.120          37.500    22842960.848    89640687.133        2665.882          40.000  
G09  22733876.146   119467407.379        3856.614          34.625    22733881.697    89212661.308        2879.747          35.750  
G17  23086612.191   121320974.088       -1434.528          39.250                                                                  
G19  22410088.662   117765781.410        -117.036          36.250                                                                  
G28  23787750.216   125005468.745       -1642.645          36.125                                                                  
G31  22075405.765   116007052.245         265.928          38.375                                                                  
R10  22491016.734   119889661.886        2434.910          26.375  
R02  22248190.956   118720520.965        3858.797          25.250  
R09  23006137.412   122851444.221        -472.300          35.750  
R01  19377090.823   103581569.279        1245.950          35.625  
R24  19777515.434   105759318.689        -947.833          39.000  
R17  21089674.828   112855069.132        3420.057          38.000  
R08  21187022.614   113455533.475       -2349.767          35.000  
E12  24124019.921   126772567.898        1467.544          38.250    24124019.330    94667832.181        1095.717          37.875  
E19                                      1961.427          38.000                                        1464.934          34.125  
E33  24411335.281   128282432.146       -1525.371          39.375    24411337.761    95795337.361       -1139.083          35.000  
> 2024 06 26 15 02 41.0000000  0 19       0.000000000000
G02  23184457.321   121835247.519       -2543.000          30.125                                                                  
G03  20116880.024   105714910.244        -162.227          43.875    20116879.922    78942957.595        -121.379          39.125  
G04  20472657.689   107584596.053        2011.699          40.375    20472662.263    80339086.117        1501.948          39.750  
G06  22842392.631   120037614.196        3571.104          36.750    22842399.230    89638484.293        2666.432          39.875  
G09  22733264.480   119464171.098        3857.290          34.375    22733265.495    89210244.629        2880.086          35.500  
G17  23087009.218   121323028.735       -1433.821          39.750                                                                  
G19  22410227.635   117766518.670        -116.864          35.625                                                                  
G28  23788180.399   125007731.496       -1641.934          36.750                                                                  
G31  22075470.541   116007406.623         266.295          37.750                                                                  
R10  22490686.924   119887856.279        2435.375          27.000  
R02  22247575.243   118717291.736        3859.666          27.500  
R09  23006331.459   122852546.677        -471.750          35.500  
R01  19376960.784   103580954.192        1246.552          35.625  
R24  19777814.392   105760897.646        -947.388          39.250  
R17  21089154.672   112852280.668        3420.473          37.375  
R08  21187576.135   113458515.115       -2349.047          34.750  
E12  24123860.217   126771720.515        1468.236          38.125    24123858.020    94667199.377        1096.267          37.875  
E19                                      1962.138          37.625                                        1465.306          34.000  
E33  24411743.965   128284577.728       -1524.620          39.500    24411746.236    95796939.564       -1138.577          35.125  
> 2024 06 26 15 02 42.0000000  0 19       0.000000000000
G02  23185062.146   121838412.215       -2544.429          31.250                                                                  
G03  20117030.725   105715694.152        -163.568          43.375    20117028.528    78943542.987        -122.471          38.750  
G04  20472393.981   107583206.174        2010.167          40.750    20472397.229    80338048.223        1500.908          40.000  
G06  22841830.944   120034665.110        3569.317          36.500    22841838.100    89636282.023        2665.290          40.000  
G09  22732642.275   119460935.493        3856.012          34.125    22732649.781    89207828.423        2879.277          35.750  
G17  23087395.915   121325084.219       -1435.155          38.875                                                                  
G19  22410368.563   117767257.030        -118.288          36.750                                                                  
G28  23788609.744   125009995.181       -1643.641          35.500                                                                  
G31  22075542.715   116007762.156         264.528          38.000                                                                  
R10  22490355.579   119886051.882        2433.256          27.125  
R02  22246981.167   118714063.153        3858.787          27.500  
R09  23006554.123   122853650.366        -473.702          35.500  
R01  19376851.615   103580340.090        1244.958          35.500  
R24  19778107.346   105762477.931        -949.344          39.250  
R17  21088631.375   112849493.297        3418.845          36.750  
R08  21188131.959   113461497.407       -2350.241          35.750  
E12  24123698.907   126770873.954        1466.763          38.375    24123696.780    94666567.216        1095.161          38.000  
E19                                      1960.860          37.625                                        1464.273          34.125  
E33  24412155.232   128286724.054       -1525.948          39.500    24412154.012    95798542.350       -1139.771          34.875  
> 2024 06 26 15 02 43.0000000  0 19       0.000000000000
G02  23185665.295   121841576.657       -2544.588          31.000                                                                  
G03  20117176.050   105716478.022        -164.241          43.000    20117177.274    78944128.325        -122.615          38.375  
G04  20472129.785   107581816.327        2009.558          41.125    20472133.591    80337010.341        1500.523          40.000  
G06  22841270.861   120031715.804        3569.084          37.500    22841276.692    89634079.609        2665.196          40.125  
G09  22732026.910   119457699.605        3855.447          33.000    22732034.975    89205412.022        2879.045          36.125  
G17  23087787.917   121327139.650       -1435.658          38.250                                                                  
G19  22410512.143   117767995.572        -118.962          37.250                                                                  
G28  23789038.391   125012258.843       -1644.048          35.000                                                                  
G31  22075608.956   116008117.924         263.667          37.750                                                                  
R10  22490030.028   119884247.722        2432.672          27.750  
R02  22246378.297   118710834.413        3858.298          27.125  
R09  23006752.498   122854754.383        -474.391          35.625  
R01  19376743.633   103579726.014        1244.432          35.500  
R24  19778400.370   105764058.645        -950.310          39.625  
R17  21088112.963   112846706.081        3418.195          37.750  
R08  21188690.855   113464479.435       -2350.527          34.875  
E12  24123538.574   126770027.312        1466.421          38.750    24123535.400    94665934.992        1094.851          38.125  
E19                                      1960.319          37.500                                        1464.183          34.250  
E33  24412562.380   128288870.249       -1526.558          39.500    24412563.185    95800145.029       -1139.928          35.625  
