     3.04           OBSERVATION DATA    M: Mixed            RINEX VERSION / TYPE
CONVBIN demo5 b34j                      20240704 090716 UTC PGM / RUN BY / DATE 
log: ../ubx/R9_2024-06-26_16_59.ubx                         COMMENT             
format: u-blox UBX                                          COMMENT             
format: u-blox UBX                                          COMMENT             
log: ../ubx/R9_2024-06-26_16_59.ubx                         COMMENT             
                                                            MARKER NAME         
                                                            MARKER NUMBER       
                                                            MARKER TYPE         
                                                            OBSERVER / AGENCY   
                                                            REC # / TYPE / VERS 
                                                            ANT # / TYPE        
  3863837.0287  1324243.4031  4882769.9962                  APPROX POSITION XYZ 
        0.0000        0.0000        0.0000                  ANTENNA: DELTA H/E/N
G    8 C1C L1C D1C S1C C2X L2X D2X S2X                      SYS / # / OBS TYPES 
E    8 C1X L1X D1X S1X C7X L7X D7X S7X                      SYS / # / OBS TYPES 
  2024    06    26    14    59   40.9960000     GPS         TIME OF FIRST OBS   
  2024    06    26    15    29   21.9970000     GPS         TIME OF LAST OBS    
G L1C                                                       SYS / PHASE SHIFT   
G L2X  0.00000                                              SYS / PHASE SHIFT   
E L1X  0.00000                                              SYS / PHASE SHIFT   
E L7X  0.00000                                              SYS / PHASE SHIFT   
  0                                                         GLONASS SLOT / FRQ #
                                                            GLONASS COD/PHS/BIS 
                                                            END OF HEADER       
> 2024 06 26 14 59 40.9960000  0 13                     
G06  21704621.602   114058552.1291       2081.627          40.000    21704623.836    88876806.3181       1621.797          38.000  
G04  19282069.839   101327960.0531        557.251          45.000                                                                  
G02  21837075.128   114754598.8481      -4042.877          43.000                                                                  
G03  18851561.247    99065621.0131      -1632.211          50.000    18851558.236    77193978.2681      -1271.740          43.000  
G31  20825745.608   109440032.2851      -1150.267          47.000                                                                  
G19  21147289.925   111129756.4091      -1538.891          42.000                                                                  
G17  21778130.126   114444845.3471      -2903.365          42.000                                                                  
G28  22472443.501   118093490.6031      -3095.941          43.000                                                                  
G09  21605096.962   113535558.9211       2355.868          36.000                                                                  
E12  22914304.387   120415486.6421         -6.748          44.000                                                                  
E10  24147748.819   126897266.4241       1198.648          42.000                                                                  
E33  23099464.527   121388505.9101      -3011.504          46.000                                                                  
E19  22491292.915   118192532.3041        475.928          41.000                                                                  
> 2024 06 26 14 59 41.9960000  0 13                     
G06  21704225.731   114056471.184        2080.640          40.000    21704227.727    88875184.766        1621.516          38.000  
G04  19281963.964   101327403.535         556.294          45.000                                                                  
G02  21837844.577   114758642.314       -4043.566          43.000                                                                  
G03  18851871.907    99067253.784       -1632.964          50.000    18851869.017    77195250.548       -1272.180          44.000  
G31  20825964.653   109441183.461       -1151.551          47.000                                                                  
G19  21147582.811   111131295.913       -1539.709          41.000                                                                  
G17  21778682.680   114447749.251       -2904.155          43.000                                                                  
G28  22473032.703   118096587.176       -3096.769          43.000                                                                  
G09  21604648.733   113533203.267        2356.188          35.000                                                                  
E12  22914305.778   120415493.957          -7.440          44.000                                                                  
E10  24147520.656   126896068.548        1197.830          42.000                                                                  
E33  23100037.625   121391518.012       -3012.277          46.000                                                                  
E19  22491202.910   118192056.919         475.135          41.000                                                                  
> 2024 06 26 14 59 42.9960000  0 13                     
G06  21703830.119   114054391.057        2079.695          40.000    21703831.775    88873563.900        1620.704          38.000  
G04  19281858.249   101326848.079         554.894          46.000                                                                  
G02  21838614.316   114762686.608       -4044.738          44.000                                                                  
G03  18852182.844    99068887.532       -1634.308          51.000    18852179.891    77196523.615       -1273.650          44.000  
G31  20826183.950   109442335.873       -1153.013          47.000                                                                  
G19  21147876.020   111132836.651       -1541.521          41.000                                                                  
G17  21779235.423   114450654.121       -2905.204          43.000                                                                  
G28  22473622.255   118099684.834       -3098.373          43.000                                                                  
G09  21604200.622   113530848.500        2354.508          35.000                                                                  
E12  22914307.368   120415502.211          -8.821          44.000                                                                  
E10  24147292.965   126894871.472        1196.856          42.000                                                                  
E33  23100611.267   121394530.987       -3013.360          46.000                                                                  
E19  22491111.876   118191582.431         473.860          41.000                                                                  
> 2024 06 26 14 59 43.9960000  0 13                     
G06  21703434.619   114052311.656        2079.038          41.000    21703436.191    88871943.632        1619.541          38.000  
G04  19281752.682   101326293.526         553.928          45.000    19281748.579    78955536.0471        431.823          46.000  
G02  21839384.106   114766731.572       -4045.435          44.000                                                                  
G03  18852493.916    99070522.102       -1635.170          51.000    18852491.078    77197797.306       -1274.163          44.000  
G31  20826403.404   109443489.449       -1154.274          47.000    20826466.848    85280899.5611       -899.214          38.000  
G19  21148169.553   111134378.478       -1542.293          42.000                                                                  
G17  21779788.445   114453559.846       -2906.246          43.000    21779784.104    89184574.0821      -2264.617          39.000  
G28  22474211.856   118102783.416       -3099.309          43.000    22474208.075    92028124.4111      -2414.864          42.000  
G09  21603752.445   113528494.337        2354.059          35.000                                                                  
E12  22914309.046   120415511.257          -9.701          44.000                                                                  
E10  24147065.523   126893675.098        1195.805          42.000                                                                  
E33  23101184.627   121397544.713       -3014.187          46.000                                                                  
E19  22491021.820   118191108.696         473.227          41.000                                                                  
> 2024 06 26 14 59 44.9960000  0 13                     
G06  21703039.203   114050233.089        2078.372          40.000    21703040.458    88870323.952        1619.174          38.000  
G04  19281647.371   101325740.001         553.149          45.000    19281643.317    78955104.745         431.073          47.000  
G02  21840154.005   114770777.325       -4045.947          43.000                                                                  
G03  18852805.237    99072157.627       -1635.890          51.000    18852802.302    77199071.737       -1274.644          44.000  
G31  20826623.072   109444644.243       -1155.153          47.000    20826622.382    85281799.396        -899.931          40.000  
G19  21148463.223   111135921.537       -1543.626          41.000                                                                  
G17  21780341.586   114456466.534       -2907.083          43.000    21780340.161    89186839.039       -2265.534          39.000  
G28  22474801.509   118105883.027       -3099.833          42.000    22474798.652    92030539.707       -2415.626          42.000  
G09  21603304.684   113526140.924        2353.123          36.000                                                                  
E12  22914310.969   120415521.217         -10.273          44.000                                                                  
E10  24146838.007   126892479.479        1195.423          42.000                                                                  
E33  23101758.084   121400559.292       -3014.921          46.000                                                                  
E19  22490931.822   118190635.798         472.573          41.000                                                                  
> 2024 06 26 14 59 45.9960000  0 13                     
G06  21702643.912   114048155.310        2077.352          40.000    21702645.017    88868704.885        1618.673          38.000  
G04  19281542.218   101325187.471         551.907          45.000    19281538.162    78954674.206         429.984          47.000  
G02  21840924.040   114774823.779       -4046.716          43.000                                                                  
G03  18853116.681    99073794.057       -1637.071          51.000    18853113.728    77200346.868       -1275.511          44.000  
G31  20826843.102   109445800.237       -1156.583          48.000    20826838.839    85282700.198        -901.553          40.000  
G19  21148757.142   111137465.749       -1544.775          42.000                                                                  
G17  21780895.016   114459374.100       -2908.007          43.000    21780894.703    89189104.674       -2266.064          38.000  
G28  22475391.476   118108983.653       -3101.199          43.000    22475389.665    92032955.782       -2416.494          42.000  
G09  21602856.938   113523788.283        2351.774          36.000                                                                  
E12  22914313.108   120415532.033         -11.081          44.000                                                                  
E10  24146610.610   126891284.616        1194.362          43.000                                                                  
E33  23102332.070   121403574.671       -3015.687          46.000                                                                  
E19  22490842.118   118190163.690         471.771          41.000                                                                  
> 2024 06 26 14 59 46.9960000  0 13                     
G06  21702248.749   114046078.218        2076.522          40.000    21702249.664    88867086.389        1617.996          38.000  
G04  19281437.205   101324635.844         550.939          45.000    19281433.229    78954244.362         429.295          47.000  
G02  21841694.219   114778870.956       -4047.651          43.000                                                                  
G03  18853428.320    99075431.297       -1637.966          51.000    18853425.410    77201622.644       -1276.286          44.000  
G31  20827063.319   109446957.356       -1157.911          48.000    20827058.127    85283601.836        -902.066          40.000  
G19  21149051.267   111139011.086       -1546.159          42.000                                                                  
G17  21781448.540   114462282.505       -2909.025          43.000    21781446.276    89191370.971       -2266.807          38.000  
G28  22475981.754   118112085.207       -3102.396          43.000    22475981.528    92035372.559       -2417.336          43.000  
G09  21602409.404   113521436.262        2351.577          37.000                                                                  
E12  22914315.203   120415543.680         -12.310          44.000                                                                  
E10  24146383.684   126890090.429        1193.534          43.000                                                                  
E33  23102905.991   121406590.795       -3016.751          46.000                                                                  
E19  22490752.567   118189692.363         470.540          41.000                                                                  
> 2024 06 26 14 59 47.9960000  0 13                     
G06  21701853.731   114044001.856        2075.820          39.000    21701854.430    88865468.425        1617.935          38.000  
G04  19281332.468   101324085.115         550.187          45.000    19281328.389    78953815.249         428.518          47.000  
G02  21842464.547   114782918.765       -4048.129          44.000                                                                  
G03  18853739.955    99077069.365       -1638.481          51.000    18853737.144    77202899.079       -1276.909          44.000  
G31  20827283.743   109448115.596       -1158.857          47.000    20827280.641    85284504.354        -903.087          41.000  
G19  21149345.699   111140557.474       -1546.986          42.000                                                                  
G17  21782002.142   114465191.768       -2909.779          42.000    21782000.410    89193637.904       -2267.062          39.000  
G28  22476572.049   118115187.647       -3102.956          43.000    22476570.802    92037790.071       -2417.952          42.000  
G09  21601962.020   113519084.927        2350.690          35.000                                                                  
E12  22914317.423   120415556.100         -12.815          44.000                                                                  
E10  24146156.942   126888896.891        1193.145          43.000                                                                  
E33  23103480.003   121409607.638       -3017.218          46.000                                                                  
E19  22490662.883   118189221.708         470.231          41.000                                                                  
> 2024 06 26 14 59 48.9960000  0 13                     
G06  21701458.807   114041926.191        2075.125          38.000    21701459.249    88863851.007        1617.446          38.000  
G04  19281227.781   101323535.262         549.381          45.000    19281223.684    78953386.788         428.093          47.000  
G02  21843234.875   114786967.210       -4048.635          44.000                                                                  
G03  18854051.892    99078708.226       -1639.338          50.000    18854049.074    77204176.102       -1277.333          44.000  
G31  20827504.321   109449274.897       -1159.901          48.000    20827501.467    85285407.721        -903.919          41.000  
G19  21149640.250   111142104.903       -1547.729          42.000                                                                  
G17  21782555.907   114468101.804       -2910.426          43.000    21782554.299    89195905.466       -2267.921          39.000  
G28  22477162.660   118118290.979       -3103.762          44.000    22477161.251    92040208.258       -2418.735          42.000  
G09  21601514.646   113516734.121        2351.254          35.000                                                                  
E12  22914319.988   120415569.278         -13.604          44.000                                                                  
E10  24145930.346   126887703.982        1192.583          43.000                                                                  
E33  23104054.293   121412625.178       -3017.941          46.000                                                                  
E19  22490573.479   118188751.787         469.599          41.000                                                                  
> 2024 06 26 14 59 49.9960000  0 13                     
G06  21701063.966   114039851.152        2074.745          38.000    21701064.205    88862234.113        1616.599          38.000  
G04  19281123.283   101322986.277         548.773          45.000    19281119.205    78952958.997         427.644          47.000  
G02  21844005.463   114791016.257       -4049.249          44.000                                                                  
G03  18854363.788    99080347.855       -1639.931          51.000    18854361.152    77205453.740       -1277.866          44.000  
G31  20827724.986   109450435.298       -1160.930          47.000    20827721.634    85286311.911        -904.607          41.000  
G19  21149935.100   111143653.413       -1548.844          42.000                                                                  
G17  21783109.805   114471012.616       -2910.979          43.000    21783108.008    89198173.639       -2268.358          39.000  
G28  22477753.330   118121395.191       -3104.634          43.000    22477751.837    92042627.116       -2419.104          42.000  
G09  21601067.429   113514383.965        2350.210          35.000    21601073.861    88452785.7511       1832.143          34.000  
E12  22914322.436   120415583.194         -14.021          44.000                                                                  
E10  24145703.566   126886511.700        1192.245          43.000                                                                  
E33  23104629.016   121415643.409       -3018.372          46.000                                                                  
E19  22490484.192   118188282.558         468.798          41.000                                                                  
> 2024 06 26 14 59 50.9960000  0 13                     
G06  21700669.260   114037776.741        2074.218          38.000    21700669.285    88860617.676        1616.026          38.000  
G04  19281018.883   101322438.115         547.672          45.000    19281014.896    78952531.875         426.688          47.000  
G02  21844776.148   114795065.900       -4050.147          44.000                                                                  
G03  18854675.795    99081988.241       -1640.928          51.000    18854673.290    77206731.969       -1278.739          44.000  
G31  20827946.045   109451596.733       -1162.137          48.000    20827942.658    85287216.937        -905.704          41.000  
G19  21150230.083   111145202.929       -1550.098          42.000                                                                  
G17  21783663.824   114473924.206       -2912.169          43.000    21783661.876    89200442.404       -2268.994          39.000  
G28  22478344.199   118124500.237       -3105.723          43.000    22478342.703    92045046.634       -2420.035          42.000  
G09  21600620.352   113512034.357        2349.016          35.000    21600620.092    88450954.924        1831.195          35.000  
E12  22914325.182   120415597.830         -15.109          44.000                                                                  
E10  24145476.521   126885320.009        1191.424          43.000                                                                  
E33  23105203.449   121418662.294       -3019.309          46.000                                                                  
E19  22490395.176   118187813.970         468.026          41.000                                                                  
> 2024 06 26 14 59 51.9960000  0 13                     
G06  21700274.733   114035703.090        2073.119          38.000    21700274.477    88859001.879        1615.640          37.000  
G04  19280914.728   101321890.903         546.850          45.000    19280910.731    78952105.471         426.116          47.000  
G02  21845546.964   114799116.275       -4050.851          44.000                                                                  
G03  18854988.091    99083629.485       -1641.710          51.000    18854985.764    77208010.858       -1279.296          44.000  
G31  20828167.419   109452759.326       -1163.236          48.000    20828163.896    85288122.854        -906.572          41.000  
G19  21150525.204   111146753.584       -1551.185          42.000                                                                  
G17  21784217.925   114476836.657       -2912.860          43.000    21784215.998    89202711.850       -2269.781          39.000  
G28  22478935.155   118127606.247       -3106.613          43.000    22478933.696    92047466.893       -2420.539          42.000  
G09  21600173.510   113509685.465        2348.413          35.000    21600175.147    88449124.666        1829.684          34.000  
E12  22914328.056   120415613.288         -15.672          44.000                                                                  
E10  24145249.858   126884129.027        1190.596          43.000                                                                  
E33  23105778.126   121421681.940       -3019.950          46.000                                                                  
E19  22490306.248   118187346.154         467.279          41.000                                                                  
> 2024 06 26 14 59 52.9960000  0 13                     
G06  21699880.239   114033630.047        2072.639          38.000    21699879.930    88857386.486        1615.138          36.000  
G04  19280810.833   101321344.473         546.166          45.000    19280806.811    78951679.697         425.395          46.000  
G02  21846317.736   114803167.144       -4051.018          43.000                                                                  
G03  18855300.504    99085271.426       -1642.068          50.000    18855298.386    77209290.294       -1279.702          44.000  
G31  20828388.959   109453922.918       -1164.106          48.000    20828385.253    85289029.530        -906.676          41.000  
G19  21150820.499   111148305.236       -1552.383          42.000                                                                  
G17  21784772.275   114479749.833       -2913.479          43.000    21784770.401    89204981.858       -2270.255          39.000  
G28  22479526.498   118130713.064       -3107.166          44.000    22479524.708    92049887.779       -2421.261          42.000  
G09  21599726.662   113507337.148        2347.447          35.000    21599728.258    88447294.747        1829.605          34.000  
E12  22914331.180   120415629.432         -16.249          44.000                                                                  
E10  24145023.258   126882938.590        1190.288          43.000                                                                  
E33  23106352.690   121424702.218       -3020.536          46.000                                                                  
E19  22490216.987   118186878.928         466.977          41.000                                                                  
> 2024 06 26 14 59 53.9960000  0 13                     
G06  21699486.021   114031557.542        2071.849          39.000    21699485.505    88855771.529        1614.610          34.000  
G04  19280706.961   101320798.830         544.781          45.000    19280703.070    78951254.510         424.439          43.000  
G02  21847088.653   114807218.547       -4052.033          43.000                                                                  
G03  18855613.007    99086914.059       -1643.328          50.000    18855610.994    77210570.262       -1280.576          40.000  
G31  20828610.554   109455087.494       -1165.484          48.000    20828606.928    85289936.995        -907.872          37.000  
G19  21151116.050   111149857.802       -1553.410          42.000                                                                  
G17  21785326.766   114482663.701       -2914.710          43.000    21785324.748    89207252.410       -2271.107          36.000  
G28  22480117.876   118133820.659       -3108.521          44.000    22480116.088    92052309.278       -2422.457          38.000  
G09  21599279.820   113504989.233        2347.142          36.000    21599280.284    88445465.254        1828.161          27.000  
E12  22914334.220   120415646.213         -17.534          43.000                                                                  
E10  24144796.965   126881748.679        1189.402          43.000                                                                  
E33  23106927.272   121427723.064       -3021.506          45.000                                                                  
E19  22490128.297   118186412.338         466.063          41.000                                                                  
> 2024 06 26 14 59 54.9960000  0 13                     
G06  21699091.757   114029485.716        2071.643          40.000    21699091.151    88854157.149        1614.360          34.000  
G04  19280603.281   101320254.054         544.426          45.000    19280599.506    78950830.006         424.236          44.000  
G02  21847859.755   114811270.608       -4052.240          43.000                                                                  
G03  18855925.784    99088557.488       -1643.848          50.000    18855923.697    77211850.853       -1280.982          41.000  
G31  20828832.457   109456253.149       -1166.163          48.000    20828828.708    85290845.321        -908.801          38.000  
G19  21151411.755   111151411.433       -1554.067          42.000                                                                  
G17  21785881.399   114485578.369       -2915.094          43.000    21785879.387    89209523.581       -2271.468          36.000  
G28  22480709.401   118136929.133       -3109.018          43.000    22480707.517    92054731.467       -2422.857          39.000  
G09  21598833.210   113502641.961        2346.958          36.000    21598833.774    88443636.172        1828.949          30.000  
E12  22914337.567   120415663.762         -17.974          43.000                                                                  
E10  24144570.818   126880559.408        1188.907          43.000                                                                  
E33  23107502.174   121430744.632       -3021.890          45.000                                                                  
E19  22490039.862   118185946.459         465.284          41.000                                                                  
> 2024 06 26 14 59 55.9960000  0 13                     
G06  21698697.716   114027414.475        2070.941          40.000    21698696.972    88852543.243        1613.542          34.000  
G04  19280499.665   101319710.055         543.595          45.000    19280496.113    78950406.118         423.594          44.000  
G02  21848631.027   114815323.196       -4052.930          43.000                                                                  
G03  18856238.621    99090201.612       -1644.533          50.000    18856236.568    77213131.987       -1281.336          41.000  
G31  20829054.482   109457419.811       -1167.277          48.000    20829050.760    85291754.418        -909.979          38.000  
G19  21151707.687   111152966.030       -1555.040          42.000                                                                  
G17  21786436.198   114488493.725       -2915.642          43.000    21786434.159    89211795.257       -2271.763          36.000  
G28  22481301.129   118140038.398       -3109.972          43.000    22481299.208    92057154.269       -2423.012          39.000  
G09  21598386.554   113500295.235        2346.294          35.000    21598387.136    88441807.431        1829.523          30.000  
E12  22914341.070   120415681.991         -18.534          43.000                                                                  
E10  24144344.819   126879370.663        1188.573          43.000                                                                  
E33  23108077.210   121433766.808       -3022.381          45.000                                                                  
E19  22489951.669   118185481.151         464.956          41.000                                                                  
> 2024 06 26 14 59 56.9960000  0 13                     
G06  21698303.797   114025343.838        2070.126          41.000    21698303.012    88850929.770        1613.000          33.000  
G04  19280396.322   101319166.849         542.841          45.000    19280392.802    78949982.843         422.974          43.000  
G02  21849402.297   114819376.293       -4053.430          43.000                                                                  
G03  18856551.513    99091846.442       -1645.196          50.000    18856549.611    77214413.657       -1281.867          41.000  
G31  20829276.764   109458587.465       -1168.247          48.000    20829272.914    85292664.254        -910.205          38.000  
G19  21152003.807   111154521.606       -1556.129          41.000                                                                  
G17  21786991.092   114491409.773       -2916.327          43.000    21786989.046    89214067.560       -2273.233          35.000  
G28  22481892.862   118143148.436       -3110.599          43.000    22481891.034    92059577.711       -2424.292          38.000  
G09  21597940.000   113497948.979        2345.961          34.000    21597940.523    88439979.288        1828.265          29.000  
E12  22914344.473   120415700.886         -19.255          43.000                                                                  
E10  24144118.727   126878182.480        1187.855          43.000                                                                  
E33  23108652.410   121436789.580       -3023.237          46.000                                                                  
E19  22489863.265   118185016.450         464.447          41.000                                                                  
> 2024 06 26 14 59 57.9960000  0 13                     
G06  21697909.986   114023273.657        2069.873          41.000    21697909.071    88849316.607        1613.196          32.000  
G04  19280293.120   101318624.333         542.186          45.000    19280289.673    78949560.090         422.477          43.000  
G02  21850173.668   114823429.853       -4053.714          43.000                                                                  
G03  18856864.663    99093491.869       -1645.741          50.000    18856862.781    77215695.818       -1282.365          41.000  
G31  20829499.258   109459756.030       -1169.006          48.000    20829495.204    85293574.793        -910.608          38.000  
G19  21152299.987   111156078.050       -1556.709          42.000                                                                  
G17  21787546.143   114494326.467       -2916.969          42.000    21787544.014    89216340.265       -2272.739          34.000  
G28  22482484.695   118146259.195       -3110.980          43.000    22482482.971    92062001.660       -2424.336          38.000  
G09  21597493.432   113495603.148        2346.197          34.000    21597494.326    88438151.414        1827.828          29.000  
E12  22914347.982   120415720.354         -19.548          43.000                                                                  
E10  24143892.460   126876994.740        1187.615          43.000                                                                  
E33  23109227.687   121439812.849       -3023.326          46.000                                                                  
E19  22489775.163   118184552.250         464.179          42.000                                                                  
> 2024 06 26 14 59 58.9960000  0 13                     
G06  21697516.156   114021204.023        2069.417          41.000    21697515.066    88847703.885        1613.357          32.000  
G04  19280190.092   101318082.543         541.504          45.000    19280186.641    78949137.923         421.899          43.000  
G02  21850945.094   114827483.909       -4054.481          43.000                                                                  
G03  18857177.792    99095137.951       -1646.494          50.000    18857176.065    77216978.487       -1283.091          41.000  
G31  20829721.912   109460925.519       -1170.041          48.000    20829717.785    85294486.100        -911.756          38.000  
G19  21152596.265   111157635.417       -1557.712          42.000                                                                  
G17  21788101.360   114497243.828       -2917.792          42.000    21788099.072    89218613.502       -2273.283          35.000  
G28  22483076.893   118149370.714       -3112.131          43.000    22483075.017    92064426.197       -2424.632          38.000  
G09  21597046.932   113493257.845        2345.595          35.000    21597048.175    88436323.879        1827.100          29.000  
E12  22914351.727   120415740.430         -20.469          43.000    22914349.577    92266590.0871        -15.743          46.000  
E10  24143666.479   126875807.468        1187.145          43.000    24143666.247    97216538.9861        909.581          45.000  
E33  23109802.907   121442836.718       -3024.320          46.000                                                                  
E19  22489686.883   118184088.648         463.212          41.000                                                                  
> 2024 06 26 14 59 59.9960000  0 13                     
G06  21697122.562   114019135.006        2068.927          41.000    21697121.287    88846091.696        1611.561          32.000  
G04  19280087.142   101317541.565         540.483          45.000    19280083.718    78948716.366         421.461          43.000  
G02  21851716.732   114831538.500       -4054.860          43.000                                                                  
G03  18857491.174    99096784.752       -1647.258          50.000    18857489.588    77218261.699       -1283.508          41.000  
G31  20829944.668   109462096.025       -1171.018          48.000    20829940.518    85295398.189        -912.478          38.000  
G19  21152892.711   111159193.765       -1558.839          42.000                                                                  
G17  21788656.655   114500161.919       -2918.627          43.000    21788654.299    89220887.363       -2274.278          35.000  
G28  22483669.170   118152483.015       -3112.844          43.000    22483667.231    92066851.383       -2425.643          38.000  
G09  21596600.539   113490913.037        2344.993          33.000    21596602.073    88434496.771        1826.722          29.000  
E12  22914355.438   120415761.188         -21.189          43.000    22914353.167    92266605.982         -16.138          46.000  
E10  24143440.771   126874620.796        1186.289          43.000    24143440.411    97215629.713         909.016          45.000  
E33  23110378.488   121445861.180       -3024.802          46.000                                                                  
E19  22489598.906   118183625.622         462.634          41.000                                                                  
> 2024 06 26 15 00 00.9960000  0 13                     
G06  21696728.972   114017066.489        2068.116          40.000    21696727.607    88844479.864        1611.000          32.000  
G04  19279984.302   101317001.274         539.909          45.000    19279980.874    78948295.375         420.541          43.000  
G02  21852488.376   114835593.556       -4055.200          44.000                                                                  
G03  18857804.712    99098432.151       -1647.591          50.000    18857803.061    77219545.389       -1283.846          41.000  
G31  20830167.815   109463267.450       -1171.850          48.000    20830163.470    85296310.980        -913.159          38.000  
G19  21153189.428   111160752.967       -1559.470          42.000                                                                  
G17  21789211.961   114503080.584       -2918.891          43.000    21789209.623    89223161.683       -2274.830          34.000  
G28  22484261.578   118155596.038       -3113.177          43.000    22484259.699    92069277.119       -2426.115          38.000  
G09  21596154.078   113488568.715        2344.615          32.000    21596156.069    88432670.076        1825.959          29.000  
E12  22914359.540   120415782.536         -21.557          43.000    22914357.338    92266622.336         -16.427          46.000  
E10  24143214.893   126873434.555        1186.040          43.000    24143215.022    97214720.769         908.951          45.000  
E33  23110953.924   121448886.160       -3025.168          46.000                                                                  
E19  22489511.044   118183163.151         462.200          41.000                                                                  
> 2024 06 26 15 00 01.9960000  0 13                     
G06  21696335.346   114014998.482        2067.413          40.000    21696334.050    88842868.401        1611.405          32.000  
G04  19279881.623   101316461.685         539.184          45.000    19279878.315    78947874.916         420.104          44.000  
G02  21853260.186   114839649.066       -4055.733          44.000                                                                  
G03  18858118.258    99100080.184       -1648.450          50.000    18858116.658    77220829.582       -1284.587          41.000  
G31  20830390.963   109464439.783       -1172.857          48.000    20830386.650    85297224.468        -913.520          38.000  
G19  21153486.352   111162313.091       -1560.832          42.000                                                                  
G17  21789767.509   114505999.913       -2919.751          43.000    21789765.052    89225436.427       -2274.737          34.000  
G28  22484854.091   118158709.782       -3114.337          42.000    22484852.270    92071703.402       -2426.740          38.000  
E12  22914363.864   120415804.461         -22.228          43.000    22914361.530    92266639.149         -17.009          46.000  
E10  24142989.236   126872248.790        1185.427          43.000    24142989.141    97213812.203         908.337          45.000  
E33  23111529.748   121451911.684       -3025.931          46.000                                                                  
E19  22489422.979   118182701.184         461.729          42.000                                                                  
G09                                                                  21595710.312    88430843.597        1826.127          29.000  
> 2024 06 26 15 00 02.9960000  0 13                     
G06  21695941.864   114012930.915        2067.375          41.000    21695940.593    88841257.335        1611.357          32.000  
G04  19279779.262   101315922.773         538.517          45.000    19279775.835    78947454.986         419.572          44.000  
G02  21854031.958   114843704.988       -4055.997          44.000                                                                  
G03  18858431.913    99101728.799       -1648.879          50.000    18858430.378    77222114.216       -1284.822          41.000  
G31  20830614.265   109465613.006       -1173.691          48.000    20830609.934    85298138.680        -914.562          38.000  
G19  21153783.365   111163874.069       -1561.373          41.000                                                                  
G17  21790323.082   114508919.852       -2920.389          43.000    21790320.678    89227711.727       -2275.718          34.000  
G28  22485446.769   118161824.208       -3114.905          43.000    22485444.919    92074130.229       -2427.057          38.000  
E12  22914368.103   120415826.972         -22.802          43.000    22914365.663    92266656.394         -17.491          46.000  
E10  24142763.733   126871063.459        1185.040          43.000    24142763.360    97212903.964         908.114          45.000  
E33  23112105.734   121454937.691       -3026.333          46.000                                                                  
E19  22489335.056   118182239.741         461.288          42.000                                                                  
G09                                                                  21595264.575    88429017.500        1825.821          29.000  
> 2024 06 26 15 00 03.9960000  0 13                     
G06  21695548.575   114010863.703        2067.001          41.000    21695547.306    88839646.523        1611.072          33.000  
G04  19279676.875   101315384.384         538.054          46.000    19279673.421    78947035.462         419.311          44.000  
G02  21854803.748   114847761.225       -4056.428          42.000                                                                  
G03  18858745.669    99103377.857       -1649.275          50.000    18858744.225    77223399.187       -1284.980          41.000  
G31  20830837.741   109466786.948       -1174.378          48.000    20830833.436    85299053.464        -915.241          38.000  
G19  21154080.528   111165435.748       -1562.136          41.000                                                                  
G17  21790878.811   114511840.222       -2920.704          44.000    21790876.390    89229987.319       -2275.437          34.000  
G28  22486039.575   118164939.137       -3115.240          43.000    22486037.643    92076557.457       -2427.521          39.000  
G09  21594815.478   113481520.0671       2343.450          34.000    21594818.789    88427191.592        1825.853          30.000  
E12  22914372.474   120415849.868         -23.063          43.000    22914370.232    92266673.953         -17.737          46.000  
E10  24142538.727   126869878.394        1184.823          43.000    24142538.032    97211995.939         907.821          45.000  
E33  23112681.671   121457964.047       -3026.543          46.000                                                                  
E19  22489247.444   118181778.633         460.982          42.000                                                                  
> 2024 06 26 15 00 04.9960000  0 13                     
G06  21695155.352   114008796.956        2066.376          41.000    21695153.974    88838036.071        1610.665          34.000  
G04  19279574.597   101314846.660         537.400          46.000    19279571.013    78946616.460         418.699          44.000  
G02  21855575.853   114851817.838       -4056.660          42.000                                                                  
G03  18859059.630    99105027.492       -1649.918          50.000    18859058.126    77224684.612       -1285.511          41.000  
G31  20831061.354   109467961.775       -1175.163          48.000    20831056.995    85299968.900        -915.795          38.000  
G19  21154377.862   111166998.293       -1563.156          41.000                                                                  
G17  21791434.701   114514761.187       -2921.245          43.000    21791432.262    89232263.410       -2276.518          34.000  
G28  22486632.489   118168054.765       -3115.826          43.000    22486630.473    92078985.201       -2427.997          38.000  
G09  21594369.270   113479177.220        2342.824          34.000    21594373.085    88425365.969        1825.259          30.000  
E12  22914376.957   120415873.310         -23.548          43.000    22914374.544    92266691.908         -18.116          46.000  
E10  24142313.388   126868693.762        1184.434          43.000    24142312.598    97211088.232         907.658          45.000  
E33  23113257.964   121460990.888       -3027.023          47.000                                                                  
E19  22489159.895   118181318.025         460.339          42.000                                                                  
> 2024 06 26 15 00 05.9960000  0 13                     
G06  21694762.128   114006730.677        2066.023          41.000    21694760.835    88836426.076        1609.500          33.000  
G04  19279472.447   101314309.650         536.748          45.000    19279468.867    78946198.003         418.175          44.000  
G02  21856347.814   114855874.940       -4057.345          42.000                                                                  
G03  18859373.639    99106677.742       -1650.422          50.000    18859372.220    77225970.528       -1286.041          41.000  
G31  20831285.240   109469137.520       -1176.203          48.000    20831280.763    85300885.077        -916.443          38.000  
G19  21154675.329   111168561.698       -1563.721          41.000                                                                  
G17  21791990.639   114517682.777       -2921.957          43.000    21791988.190    89234539.955       -2276.513          34.000  
G28  22487225.556   118171171.082       -3116.650          43.000    22487223.502    92081413.531       -2428.601          38.000  
G09  21593923.430   113476834.842        2342.223          33.000    21593927.532    88423540.789        1824.643          29.000  
E12  22914381.539   120415897.354         -24.143          43.000    22914379.037    92266710.330         -18.667          46.000  
E10  24142087.991   126867509.603        1183.984          43.000    24142087.342    97210180.886         907.207          45.000  
E33  23113833.980   121464018.266       -3027.570          47.000                                                                  
E19  22489072.202   118180857.923         460.024          42.000                                                                  
> 2024 06 26 15 00 06.9960000  0 13                     
G06  21694368.988   114004664.809        2065.493          41.000    21694367.675    88834816.249        1609.433          33.000  
G04  19279370.335   101313773.214         536.018          45.000    19279366.774    78945779.997         417.619          44.000  
G02  21857119.831   114859932.394       -4057.726          41.000                                                                  
G03  18859687.689    99108328.500       -1651.117          50.000    18859686.417    77227256.831       -1286.198          41.000  
G31  20831509.216   109470314.073       -1177.240          48.000    20831504.609    85301801.860        -917.252          38.000  
G19  21154972.889   111170125.876       -1564.778          39.000                                                                  
G17  21792546.674   114520604.873       -2922.512          43.000    21792544.248    89236816.911       -2277.254          35.000  
G28  22487818.795   118174288.028       -3117.468          43.000    22487816.656    92083842.320       -2429.169          38.000  
G09  21593477.667   113474492.796        2340.929          32.000    21593481.908    88421715.795        1824.883          29.000  
E12  22914386.214   120415921.868         -25.140          43.000    22914383.702    92266729.109         -19.213          46.000  
E10  24141862.763   126866325.786        1183.336          43.000    24141862.049    97209273.811         906.812          45.000  
E33  23114410.048   121467046.057       -3028.282          47.000    23114409.437    93072147.7371      -2320.093          46.000  
E19  22488984.890   118180398.240         459.266          42.000    22488981.757    90553809.7581        352.189          41.000  
> 2024 06 26 15 00 07.9960000  0 13                     
G06  21693975.948   114002599.424        2065.384          41.000    21693974.689    88833206.871        1608.877          33.000  
G04  19279268.413   101313237.433         535.725          45.000    19279264.850    78945362.509         417.364          43.000  
G02  21857892.053   114863990.227       -4057.701          42.000                                                                  
G03  18860002.027    99109979.838       -1651.432          50.000    18860000.678    77228543.587       -1286.838          41.000  
G31  20831733.288   109471491.475       -1177.676          48.000    20831728.712    85302719.313        -917.639          38.000  
G19  21155270.585   111171690.884       -1565.501          39.000                                                                  
G17  21793102.789   114523527.534       -2922.655          43.000    21793100.447    89239094.330       -2277.791          35.000  
G28  22488411.995   118177405.605       -3117.847          43.000    22488409.903    92086271.594       -2429.395          38.000  
G09  21593032.009   113472151.122        2341.364          32.000    21593035.868    88419891.103        1824.986          28.000  
E12  22914391.269   120415946.910         -25.268          43.000    22914388.576    92266748.298         -19.095          46.000  
E10  24141637.411   126865142.378        1183.452          43.000    24141636.817    97208367.050         906.671          45.000  
E33  23114986.462   121470074.328       -3028.395          47.000    23114985.377    93074468.100       -2320.324          46.000  
E19  22488897.411   118179939.024         459.320          42.000    22488894.785    90553457.906         351.837          41.000  
> 2024 06 26 15 00 08.9960000  0 13                     
G06  21693583.034   114000534.380        2064.572          42.000    21693581.697    88831597.733        1608.751          33.000  
G04  19279166.682   101312702.218         534.679          45.000    19279162.993    78944945.454         416.736          43.000  
G02  21858664.263   114868048.377       -4058.494          41.000                                                                  
G03  18860316.405    99111631.630       -1652.142          50.000    18860314.875    77229830.706       -1287.619          41.000  
G31  20831957.535   109472669.642       -1178.773          48.000    20831952.998    85303637.365        -918.456          38.000  
G19  21155568.455   111173256.643       -1566.389          39.000                                                                  
G17  21793658.903   114526450.697       -2923.445          43.000    21793656.717    89241372.098       -2278.008          35.000  
G28  22489005.360   118180523.772       -3118.524          43.000    22489003.172    92088701.332       -2430.011          38.000  
G09  21592586.510   113469809.690        2341.912          33.000    21592590.231    88418066.733        1823.677          28.000  
E12  22914395.909   120415972.389         -25.856          43.000    22914393.325    92266767.829         -19.820          46.000  
E10  24141412.113   126863959.288        1182.707          43.000    24141411.816    97207460.533         906.175          45.000  
E33  23115562.882   121473102.964       -3029.016          47.000    23115562.234    93076788.748       -2320.911          46.000  
E19  22488809.733   118179480.202         458.457          42.000    22488807.117    90553106.359         351.058          42.000  
> 2024 06 26 15 00 09.9960000  0 13                     
G06  21693190.169   113998469.781        2064.131          42.000    21693188.881    88829988.969        1607.971          33.000  
G04  19279065.072   101312167.635         534.258          46.000    19279061.233    78944528.906         416.216          44.000  
G02  21859436.624   114872106.939       -4058.875          41.000                                                                  
G03  18860630.886    99113284.003       -1652.671          50.000    18860629.312    77231118.260       -1287.847          41.000  
G31  20832181.828   109473848.670       -1179.602          48.000    20832177.404    85304556.091        -918.935          38.000  
G19  21155866.481   111174823.225       -1567.084          39.000                                                                  
G17  21794215.246   114529374.428       -2923.888          44.000    21794213.104    89243650.345       -2278.627          35.000  
G28  22489598.788   118183642.588       -3119.104          43.000    22489596.641    92091131.597       -2431.036          38.000  
G09  21592140.912   113467468.741        2340.723          33.000    21592144.637    88416242.535        1823.679          27.000  
E12  22914400.784   120415998.431         -26.564          43.000    22914398.290    92266787.777         -20.278          46.000  
E10  24141186.541   126862776.608        1182.588          42.000    24141186.750    97206554.327         905.964          45.000  
E33  23116139.328   121476132.077       -3029.323          47.000    23116138.922    93079109.751       -2321.206          46.000  
E19  22488722.531   118179021.883         458.051          42.000    22488720.144    90552755.162         350.991          42.000  
> 2024 06 26 15 00 10.9960000  0 13                     
G06  21692797.377   113996405.731        2063.692          42.000    21692796.075    88828380.605        1607.645          33.000  
G04  19278963.631   101311633.804         533.285          46.000    19278959.597    78944112.929         415.531          44.000  
G02  21860209.100   114876165.971       -4059.339          41.000                                                                  
G03  18860945.356    99114937.024       -1653.268          50.000    18860943.980    77232406.332       -1288.524          41.000  
G31  20832406.478   109475028.643       -1180.431          48.000    20832401.928    85305475.573        -920.043          38.000  
G19  21156164.793   111176390.728       -1567.998          39.000                                                                  
G17  21794771.813   114532298.818       -2924.812          44.000    21794769.517    89245929.047       -2278.601          34.000  
G28  22490192.340   118186762.151       -3120.123          43.000    22490190.331    92093562.420       -2431.726          38.000  
G09  21591695.487   113465128.233        2340.665          33.000    21591699.212    88414418.740        1823.664          27.000  
E12  22914405.766   120416025.066         -26.956          43.000    22914403.366    92266808.191         -20.676          46.000  
E10  24140961.676   126861594.429        1181.954          43.000    24140961.817    97205648.503         905.647          45.000  
E33  23116715.921   121479161.751       -3030.049          47.000    23116715.489    93081431.190       -2321.761          46.000  
E19  22488635.585   118178564.101         457.554          42.000    22488632.795    90552404.397         350.662          41.000  
> 2024 06 26 15 00 11.9960000  0 13                     
G06  21692404.651   113994342.095        2063.652          42.000    21692403.375    88826772.546        1608.780          32.000  
G04  19278862.182   101311100.583         533.135          46.000    19278858.201    78943697.424         415.620          44.000  
G02  21860981.525   114880225.382       -4059.510          41.000                                                                  
G03  18861260.020    99116590.590       -1653.612          50.000    18861258.457    77233694.822       -1288.605          41.000  
G31  20832631.153   109476209.466       -1180.994          48.000    20832626.729    85306395.672        -920.234          38.000  
G19  21156463.231   111177959.015       -1568.273          39.000                                                                  
G17  21795328.466   114535223.752       -2925.127          44.000    21795326.122    89248208.237       -2278.770          35.000  
G28  22490786.003   118189882.332       -3120.233          43.000    22490784.125    92095993.750       -2431.604          38.000  
G09  21591250.241   113462788.102        2338.916          32.000    21591253.818    88412595.247        1823.703          28.000  
E12  22914410.855   120416052.235         -27.107          42.000    22914408.651    92266829.008         -20.880          46.000  
E10  24140736.978   126860412.627        1181.932          43.000    24140736.891    97204742.975         905.483          45.000  
E33  23117292.599   121482191.867       -3030.153          47.000    23117292.043    93083752.961       -2321.653          46.000  
E19  22488548.319   118178106.756         457.416          42.000    22488546.072    90552053.971         350.466          41.000  
> 2024 06 26 15 00 12.9960000  0 13                     
G06  21692012.039   113992278.686        2063.427          42.000    21692010.729    88825164.732        1607.896          33.000  
G04  19278760.707   101310567.809         532.543          45.000    19278756.760    78943282.279         414.965          44.000  
G02  21861754.127   114884284.987       -4059.875          41.000                                                                  
G03  18861574.693    99118244.501       -1654.143          50.000    18861573.226    77234983.575       -1289.005          41.000  
G31  20832855.992   109477390.930       -1181.743          48.000    20832851.582    85307316.308        -920.820          38.000  
G19  21156761.732   111179527.968       -1569.441          40.000                                                                  
G17  21795885.126   114538149.054       -2925.492          44.000    21795882.872    89250487.716       -2279.847          34.000  
G28  22491379.701   118193002.990       -3121.045          42.000    22491378.024    92098425.399       -2431.854          38.000  
E12  22914416.251   120416079.714         -27.646          43.000    22914413.970    92266850.068         -21.267          46.000  
E10  24140511.978   126859231.029        1181.622          43.000    24140512.089    97203837.590         905.321          45.000  
E33  23117869.411   121485222.259       -3030.523          47.000    23117868.628    93086074.941       -2322.054          46.000  
E19  22488461.256   118177649.669         456.883          42.000    22488459.002    90551703.744         349.937          41.000  
G09                                                                  21590808.298    88410771.897        1823.379          28.000  
> 2024 06 26 15 00 13.9960000  0 13                     
G06  21691619.504   113990215.802        2062.814          43.000    21691618.223    88823557.304        1607.353          32.000  
G04  19278659.544   101310035.724         531.559          46.000    19278655.522    78942867.673         414.361          44.000  
G02  21862526.837   114888345.044       -4060.167          41.000                                                                  
G03  18861889.706    99119899.033       -1655.013          50.000    18861888.048    77236272.821       -1289.712          41.000  
G31  20833081.005   109478573.304       -1182.891          47.000    20833076.606    85308237.635        -921.831          38.000  
G19  21157060.452   111181097.768       -1570.329          42.000                                                                  
G17  21796441.928   114541074.973       -2926.310          43.000    21796439.598    89252767.592       -2279.760          34.000  
G28  22491973.583   118196124.328       -3121.814          43.000    22491971.984    92100857.622       -2432.758          38.000  
E12  22914421.322   120416107.781         -28.368          43.000    22914419.257    92266871.560         -21.807          46.000  
E10  24140287.114   126858049.861        1180.928          42.000    24140287.417    97202932.560         904.851          45.000  
E33  23118446.055   121488253.168       -3031.218          47.000    23118445.423    93088397.324       -2322.576          46.000  
E19  22488374.095   118177193.086         456.172          41.000    22488372.096    90551353.892         349.572          41.000  
G09                                                                  21590363.196    88408948.892        1823.125          28.000  
> 2024 06 26 15 00 14.9960000  0 13                     
G06  21691226.936   113988153.323        2062.283          43.000    21691225.745    88821950.194        1606.441          32.000  
G04  19278558.431   101309504.257         531.174          46.000    19278554.405    78942453.549         413.897          44.000  
G02  21863299.454   114892405.438       -4060.337          41.000                                                                  
G03  18862204.663    99121554.070       -1655.197          50.000    18862202.977    77237562.459       -1289.845          41.000  
G31  20833306.163   109479756.497       -1183.568          47.000    20833301.683    85309159.605        -922.372          38.000  
G19  21157359.457   111182668.375       -1570.827          41.000                                                                  
G17  21796998.810   114544001.423       -2926.527          43.000    21796996.414    89255047.978       -2280.956          34.000  
G28  22492567.676   118199246.318       -3122.217          42.000    22492566.204    92103290.332       -2432.928          38.000  
E12  22914427.169   120416136.332         -28.646          43.000    22914424.713    92266893.444         -22.018          46.000  
E10  24140062.545   126856869.115        1180.485          43.000    24140062.843    97202027.810         904.697          45.000  
E33  23119022.927   121491284.486       -3031.380          47.000    23119022.258    93090720.032       -2322.742          46.000  
E19  22488287.441   118176736.959         456.028          41.000    22488285.454    90551004.383         349.275          42.000  
G09                                                                  21589918.005    88407126.152        1822.913          28.000  
> 2024 06 26 15 00 15.9960000  0 13                     
G06  21690834.677   113986091.125        2061.336          43.000    21690833.350    88820343.204        1607.082          33.000  
G04  19278457.413   101308973.243         530.547          46.000    19278453.281    78942039.776         413.322          43.000  
G02  21864072.217   114896466.075       -4061.006          42.000                                                                  
G03  18862519.558    99123209.500       -1655.900          49.000    18862517.991    77238852.403       -1290.331          41.000  
G31  20833531.443   109480940.356       -1184.446          48.000    20833526.896    85310082.082        -922.708          38.000  
G19  21157658.478   111184239.605       -1572.056          41.000                                                                  
G17  21797555.712   114546928.258       -2927.267          43.000    21797553.390    89257328.624       -2281.360          34.000  
G28  22493161.947   118202368.753       -3122.906          42.000    22493160.324    92105723.379       -2433.356          38.000  
E12  22914432.706   120416165.241         -29.442          43.000    22914430.213    92266915.577         -22.455          46.000  
E10  24139837.773   126855688.528        1180.511          42.000    24139838.268    97201123.228         904.255          45.000  
E33  23119599.947   121494316.104       -3032.164          47.000    23119599.028    93093042.962       -2323.352          46.000  
E19  22488200.697   118176281.120         455.523          41.000    22488198.746    90550655.108         348.951          42.000  
G09                                                                  21589472.681    88405303.584        1821.833          27.000  
> 2024 06 26 15 00 16.9960000  0 13                     
G06  21690442.389   113984029.427        2061.278          43.000    21690440.954    88818736.700        1606.709          33.000  
G04  19278356.468   101308442.945         529.855          46.000    19278352.362    78941626.573         412.809          43.000  
G02  21864845.010   114900527.177       -4061.258          42.000                                                                  
G03  18862834.549    99124865.555       -1656.497          49.000    18862833.103    77240142.855       -1291.053          41.000  
G31  20833756.834   109482125.157       -1185.275          48.000    20833752.241    85311005.298        -923.793          38.000  
G19  21157957.642   111185811.740       -1572.717          41.000                                                                  
G17  21798112.934   114549855.764       -2927.900          43.000    21798110.472    89259609.749       -2281.006          35.000  
G28  22493756.360   118205491.916       -3123.626          44.000    22493754.602    92108157.000       -2433.972          38.000  
E12  22914438.233   120416194.720         -29.789          43.000    22914435.918    92266938.179         -22.864          46.000  
E10  24139613.527   126854508.482        1179.864          43.000    24139613.808    97200219.019         904.017          45.000  
E33  23120177.420   121497348.267       -3032.546          47.000    23120175.863    93095366.314       -2323.677          46.000  
E19  22488114.042   118175825.835         454.954          41.000    22488112.139    90550306.234         348.865          42.000  
G09                                                                  21589027.594    88403481.333        1822.170          27.000  
> 2024 06 26 15 00 17.9960000  0 13                     
G06  21690050.090   113981968.150        2060.883          43.000    21690048.674    88817130.527        1606.505          34.000  
G04  19278255.709   101307913.301         529.228          46.000    19278251.550    78941213.848         412.562          43.000  
G02  21865618.085   114904588.670       -4061.721          43.000                                                                  
G03  18863149.801    99126522.172       -1656.901          49.000    18863148.337    77241433.700       -1291.147          41.000  
G31  20833982.399   109483310.814       -1186.078          48.000    20833977.890    85311929.180        -924.316          37.000  
G19  21158256.904   111187384.723       -1573.488          41.000                                                                  
G17  21798670.156   114552783.801       -2928.481          44.000    21798667.568    89261891.354       -2281.689          35.000  
G28  22494350.752   118208615.724       -3124.146          44.000    22494349.025    92110591.133       -2434.204          38.000  
G09  21588578.868   113448746.6281       2337.812          30.000    21588582.696    88401659.383        1821.625          28.000  
E12  22914443.769   120416224.747         -30.134          43.000    22914441.511    92266961.200         -23.358          46.000  
E10  24139389.253   126853328.811        1179.386          43.000    24139389.240    97199315.122         903.563          45.000  
E33  23120754.522   121500380.890       -3032.900          47.000    23120752.845    93097690.001       -2323.881          46.000  
E19  22488027.312   118175371.002         454.716          41.000    22488025.579    90549957.731         348.290          42.000  
> 2024 06 26 15 00 18.9960000  0 13                     
G06  21689657.795   113979907.279        2060.688          42.000    21689656.431    88815524.697        1605.922          33.000  
G04  19278155.039   101307384.228         528.914          45.000    19278150.869    78940801.577         412.140          43.000  
G02  21866390.999   114908650.486       -4061.811          43.000                                                                  
G03  18863465.193    99128179.288       -1657.292          49.000    18863463.716    77242724.946       -1291.000          41.000  
G31  20834208.131   109484497.258       -1186.756          48.000    20834203.611    85312853.674        -924.274          37.000  
G19  21158556.451   111188958.427       -1574.047          41.000                                                                  
G17  21799227.475   114555712.335       -2928.712          43.000    21799224.851    89264173.341       -2282.285          35.000  
G28  22494945.442   118211740.129       -3124.475          43.000    22494943.591    92113025.734       -2434.754          38.000  
E12  22914449.521   120416255.252         -30.698          43.000    22914447.436    92266984.559         -23.544          46.000  
E10  24139164.910   126852149.465        1179.182          43.000    24139164.855    97198411.480         903.461          45.000  
E33  23121331.589   121503413.906       -3033.290          46.000    23121329.920    93100014.007       -2324.121          45.000  
E19  22487941.146   118174916.539         454.455          41.000    22487939.230    90549609.521         348.016          42.000  
G09                                                                  21588137.851    88399837.680        1821.768          29.000  
> 2024 06 26 15 00 19.9960000  0 13                     
G06  21689265.566   113977846.629        2060.548          42.000    21689264.329    88813919.008        1605.638          32.000  
G04  19278054.392   101306855.593         528.190          45.000    19278050.176    78940389.662         411.774          43.000  
G02  21867163.989   114912712.514       -4062.274          43.000                                                                  
G03  18863780.688    99129836.744       -1657.596          50.000    18863779.070    77244016.487       -1291.889          40.000  
G31  20834434.097   109485684.353       -1187.646          47.000    20834429.506    85313778.684        -925.201          37.000  
G19  21158856.045   111190532.785       -1574.922          40.000                                                                  
G17  21799784.843   114558641.217       -2929.003          43.000    21799782.190    89266455.605       -2282.754          35.000  
G28  22495540.152   118214864.979       -3125.140          42.000    22495538.193    92115460.656       -2435.120          38.000  
E12  22914455.583   120416286.069         -31.000          43.000    22914453.391    92267008.169         -23.655          46.000  
E10  24138940.627   126850970.316        1179.004          44.000    24138940.423    97197507.982         903.302          45.000  
E33  23121908.769   121506447.181       -3033.590          46.000    23121907.127    93102338.209       -2324.496          45.000  
E19  22487855.005   118174462.411         453.930          42.000    22487852.640    90549261.534         347.760          42.000  
G09                                                                  21587693.285    88398016.164        1820.758          29.000  
> 2024 06 26 15 00 20.9960000  0 13                     
G06  21688873.489   113975786.324        2060.069          42.000    21688872.104    88812313.521        1605.972          31.000  
G04  19277953.822   101306327.449         528.041          46.000    19277949.829    78939978.117         411.457          43.000  
G02  21867937.110   114916774.789       -4062.295          43.000                                                                  
G03  18864096.157    99131494.626       -1658.118          50.000    18864094.591    77245308.332       -1292.021          40.000  
G31  20834660.042   109486872.131       -1188.051          48.000    20834655.538    85314704.265        -926.453          38.000  
G19  21159155.711   111192107.836       -1575.398          41.000                                                                  
G17  21800342.196   114561570.541       -2929.423          43.000    21800339.621    89268738.177       -2282.757          35.000  
G28  22496135.068   118217990.321       -3125.452          43.000    22496132.873    92117896.008       -2435.565          38.000  
G09  21587244.277   113441733.665        2336.552          32.000    21587248.505    88396194.775        1821.220          29.000  
E12  22914461.741   120416317.269         -31.197          43.000    22914459.313    92267032.085         -24.038          46.000  
E10  24138716.301   126849791.445        1178.753          44.000    24138716.312    97196604.686         903.153          46.000  
E33  23122485.754   121509480.781       -3033.778          46.000    23122484.414    93104662.651       -2324.646          45.000  
E19  22487768.759   118174008.556         453.763          42.000    22487766.318    90548913.790         347.678          42.000  
> 2024 06 26 15 00 21.9960000  0 13                     
G06  21688481.409   113973726.375        2059.828          42.000    21688480.103    88810708.386        1605.650          32.000  
G04  19277853.464   101305799.906         527.140          46.000    19277849.509    78939567.045         410.802          43.000  
G02  21868710.345   114920837.416       -4062.812          43.000                                                                  
G03  18864411.705    99133152.998       -1658.701          50.000    18864410.177    77246600.572       -1292.642          40.000  
G31  20834886.290   109488060.726       -1188.965          48.000    20834881.653    85315630.420        -926.570          37.000  
G19  21159455.487   111193683.633       -1576.226          41.000                                                                  
G17  21800899.751   114564500.354       -2930.151          43.000    21800897.198    89271021.167       -2283.177          35.000  
G28  22496729.966   118221116.254       -3126.270          43.000    22496727.591    92120331.783       -2435.272          38.000  
E12  22914467.374   120416348.944         -32.110          43.000    22914465.339    92267056.351         -24.502          46.000  
E10  24138491.856   126848612.900        1178.251          44.000    24138492.182    97195701.658         902.702          46.000  
E33  23123063.497   121512514.793       -3034.193          47.000    23123061.743    93106987.399       -2324.912          46.000  
E19  22487682.544   118173555.127         453.178          42.000    22487680.116    90548566.348         347.169          42.000  
G09                                                                  21586803.944    88394373.682        1820.775          29.000  
> 2024 06 26 15 00 22.9960000  0 13                     
G06  21688089.522   113971666.912        2059.402          42.000    21688088.180    88809103.667        1604.446          33.000  
G04  19277753.288   101305273.020         526.679          46.000    19277749.311    78939156.486         410.258          43.000  
G02  21869483.571   114924900.426       -4063.274          42.000                                                                  
G03  18864727.452    99134811.946       -1659.275          50.000    18864725.806    77247893.266       -1292.928          40.000  
G31  20835112.592   109489250.201       -1189.880          48.000    20835107.975    85316557.278        -927.146          37.000  
G19  21159755.579   111195260.291       -1577.225          40.000                                                                  
G17  21801457.413   114567430.779       -2930.859          43.000    21801454.767    89273304.576       -2283.375          35.000  
G28  22497325.071   118224242.875       -3127.118          43.000    22497322.427    92122768.108       -2436.273          38.000  
E12  22914473.447   120416381.158         -32.369          43.000    22914471.500    92267081.037         -24.904          46.000  
E10  24138267.565   126847434.800        1177.923          44.000    24138267.804    97194798.960         902.436          46.000  
E33  23123641.181   121515549.294       -3034.748          47.000    23123639.125    93109312.534       -2325.311          46.000  
E19  22487596.400   118173102.165         452.642          42.000    22487594.037    90548219.282         346.787          42.000  
G09                                                                  21586359.285    88392552.843        1820.964          30.000  
> 2024 06 26 15 00 23.9960000  0 13                     
G06  21687697.709   113969607.684        2059.286          43.000    21687696.258    88807499.055        1604.667          33.000  
G04  19277653.138   101304746.573         526.416          46.000    19277649.219    78938746.280         410.002          43.000  
G02  21870256.820   114928963.663       -4063.283          43.000                                                                  
G03  18865043.230    99136471.269       -1659.483          50.000    18865041.488    77249186.239       -1293.093          40.000  
G31  20835339.122   109490440.310       -1190.368          48.000    20835334.407    85317484.618        -927.281          37.000  
G19  21160055.650   111196837.538       -1577.367          40.000                                                                  
G17  21802015.151   114570361.562       -2930.880          43.000    21802012.520    89275588.314       -2283.887          35.000  
G28  22497920.163   118227369.934       -3127.130          43.000    22497917.402    92125204.781       -2436.591          38.000  
E12  22914479.897   120416413.715         -32.754          43.000    22914477.767    92267105.976         -24.960          46.000  
E10  24138043.342   126846256.891        1177.908          44.000    24138043.845    97193896.411         902.573          46.000  
E33  23124218.720   121518584.062       -3034.845          47.000    23124216.591    93111637.868       -2325.351          45.000  
E19  22487509.988   118172649.467         452.842          42.000    22487507.810    90547872.416         346.898          42.000  
G09                                                                  21585914.657    88390732.167        1821.548          30.000  
> 2024 06 26 15 00 24.9960000  0 13                     
G06  21687305.982   113967548.737        2058.630          42.000    21687304.433    88805894.698        1604.143          33.000  
G04  19277553.064   101304220.621         525.504          46.000    19277549.038    78938336.439         409.452          44.000  
G02  21871030.141   114933027.124       -4063.979          43.000                                                                  
G03  18865359.115    99138130.974       -1660.007          50.000    18865357.250    77250479.501       -1293.316          40.000  
G31  20835565.705   109491631.109       -1191.330          48.000    20835560.870    85318412.540        -928.518          37.000  
G19  21160355.933   111198415.475       -1578.563          40.000                                                                  
G17  21802572.971   114573292.720       -2931.418          43.000    21802570.364    89277872.332       -2284.479          36.000  
G28  22498515.319   118230497.480       -3128.052          43.000    22498512.602    92127641.832       -2437.402          38.000  
E12  22914486.354   120416446.619         -33.240          43.000    22914483.919    92267131.195         -25.550          46.000  
E10  24137819.072   126845079.222        1177.310          44.000    24137819.450    97192994.039         902.108          46.000  
E33  23124796.407   121521619.133       -3035.432          46.000    23124794.186    93113963.433       -2325.794          45.000  
E19  22487423.665   118172197.097         452.075          41.000    22487421.803    90547525.781         346.385          42.000  
G09                                                                  21585470.211    88388911.787        1819.014          30.000  
> 2024 06 26 15 00 25.9960000  0 13                     
G06  21686914.171   113965490.102        2058.252          43.000    21686912.610    88804290.510        1604.429          32.000  
G04  19277453.083   101303695.150         525.003          46.000    19277449.006    78937926.967         409.153          44.000  
G02  21871803.465   114937090.812       -4063.921          41.000                                                                  
G03  18865675.028    99139791.081       -1660.393          50.000    18865673.073    77251773.109       -1294.010          40.000  
G31  20835792.360   109492822.614       -1192.079          48.000    20835787.527    85319340.972        -928.814          37.000  
G19  21160656.348   111199994.091       -1578.557          37.000                                                                  
G17  21803130.954   114576224.322       -2932.001          43.000    21803128.246    89280156.700       -2284.714          36.000  
G28  22499110.603   118233625.527       -3128.357          43.000    22499107.800    92130079.280       -2437.958          38.000  
E12  22914492.667   120416479.890         -33.517          43.000    22914490.362    92267156.690         -25.727          46.000  
E10  24137594.426   126843901.802        1177.010          43.000    24137595.397    97192091.867         902.050          46.000  
E33  23125373.897   121524654.487       -3035.727          46.000    23125371.724    93116289.241       -2326.107          45.000  
E19  22487337.594   118171745.024         451.971          41.000    22487335.736    90547179.402         346.139          42.000  
G09                                                                  21585025.613    88387091.492        1819.108          30.000  
> 2024 06 26 15 00 26.9960000  0 13                     
G06  21686522.511   113963431.728        2058.410          43.000    21686520.956    88802686.634        1603.677          32.000  
G04  19277353.168   101303170.149         524.884          46.000    19277349.157    78937517.883         408.966          44.000  
G02  21872576.876   114941154.744       -4064.035          41.000                                                                  
G03  18865991.022    99141451.596       -1660.621          50.000    18865989.052    77253067.009       -1294.076          40.000  
G31  20836019.111   109494014.820       -1192.512          48.000    20836014.440    85320269.943        -928.912          38.000  
G19  21160956.909   111201573.357       -1579.614          39.000                                                                  
G17  21803689.027   114579156.319       -2932.374          43.000    21803686.248    89282441.367       -2285.248          36.000  
G28  22499705.828   118236754.065       -3128.668          43.000    22499703.107    92132517.107       -2438.098          38.000  
E12  22914498.948   120416513.543         -33.791          43.000    22914496.624    92267182.479         -25.918          46.000  
E10  24137370.565   126842724.630        1177.033          43.000    24137371.381    97191189.890         901.805          46.000  
E33  23125951.136   121527690.168       -3035.858          46.000    23125949.647    93118615.277       -2326.192          46.000  
E19  22487251.666   118171293.265         451.778          42.000    22487249.706    90546833.249         345.851          42.000  
G09                                                                  21584581.101    88385271.260        1819.985          30.000  
> 2024 06 26 15 00 27.9960000  0 13                     
G06  21686130.956   113961373.671        2057.918          42.000    21686129.374    88801082.896        1603.933          32.000  
G04  19277253.357   101302645.642         524.237          46.000    19277249.302    78937109.186         408.508          44.000  
G02  21873350.372   114945218.914       -4064.228          40.000                                                                  
G03  18866307.141    99143112.516       -1661.153          50.000    18866305.022    77254361.228       -1294.252          40.000  
G31  20836245.961   109495207.726       -1193.301          48.000    20836241.470    85321199.515        -929.946          38.000  
G19  21161257.641   111203153.311       -1580.243          41.000                                                                  
G17  21804247.066   114582088.713       -2932.435          43.000    21804244.244    89284726.333       -2285.050          36.000  
G28  22500301.386   118239883.108       -3129.413          43.000    22500298.515    92134955.299       -2438.635          38.000  
E12  22914505.405   120416547.583         -34.184          43.000    22914503.042    92267208.570         -26.351          46.000  
E10  24137146.599   126841547.711        1176.868          43.000    24137147.318    97190288.094         901.683          45.000  
E33  23126528.718   121530726.157       -3036.265          46.000    23126527.453    93120941.559       -2326.458          46.000  
E19  22487165.870   118170841.812         451.241          42.000    22487163.982    90546487.328         345.803          42.000  
G09                                                                  21584136.732    88383451.265        1821.115          30.000  
> 2024 06 26 15 00 28.9960000  0 13                     
G06  21685739.515   113959316.018        2057.338          41.000    21685737.842    88799479.557        1603.002          32.000  
G04  19277153.677   101302121.742         523.442          46.000    19277149.764    78936700.964         407.829          44.000  
G02  21874123.873   114949283.494       -4065.181          41.000                                                                  
G03  18866623.414    99144773.962       -1661.877          49.000    18866621.099    77255655.857       -1294.830          40.000  
G31  20836473.259   109496401.451       -1194.388          48.000    20836468.659    85322129.698        -930.689          37.000  
G19  21161558.329   111204734.064       -1581.291          39.000                                                                  
G17  21804805.197   114585021.670       -2933.493          43.000    21804802.375    89287011.735       -2286.042          36.000  
G28  22500896.982   118243012.756       -3129.962          43.000    22500894.002    92137393.975       -2439.099          38.000  
E12  22914511.947   120416582.108         -35.006          43.000    22914509.729    92267235.014         -26.812          46.000  
E10  24136922.856   126840371.163        1176.317          43.000    24136923.517    97189386.583         901.210          45.000  
E33  23127106.139   121533762.559       -3036.657          46.000    23127105.424    93123268.157       -2326.888          46.000  
E19  22487080.133   118170390.761         450.696          42.000    22487078.120    90546141.733         345.183          42.000  
G09                                                                  21583692.256    88381631.636        1819.747          31.000  
> 2024 06 26 15 00 29.9960000  0 13                     
G06  21685348.061   113957258.713        2057.046          41.000    21685346.345    88797876.443        1602.917          32.000  
G04  19277054.075   101301598.410         523.010          46.000    19277050.233    78936293.176         407.365          43.000  
G02  21874897.556   114953348.320       -4065.130          41.000                                                                  
G03  18866939.647    99146435.886       -1662.278          49.000    18866937.196    77256950.881       -1295.503          40.000  
G31  20836700.611   109497595.932       -1194.968          48.000    20836695.890    85323060.467        -931.217          38.000  
G19  21161859.401   111206315.541       -1582.137          39.000                                                                  
G17  21805363.336   114587955.055       -2933.589          43.000    21805360.521    89289297.517       -2286.000          35.000  
G28  22501492.801   118246142.967       -3130.652          43.000    22501489.672    92139833.118       -2439.648          38.000  
E12  22914518.522   120416617.060         -35.271          43.000    22914516.457    92267261.796         -26.947          46.000  
E10  24136699.190   126839194.923        1176.016          43.000    24136699.635    97188485.322         901.027          45.000  
E33  23127684.192   121536799.379       -3037.164          46.000    23127683.309    93125595.055       -2326.991          46.000  
E19  22486994.159   118169940.116         450.375          42.000    22486992.204    90545796.428         345.028          42.000  
G09                                                                  21583247.953    88379812.187        1819.424          31.000  
> 2024 06 26 15 00 30.9960000  0 13                     
G06  21684956.691   113955201.793        2056.699          42.000    21684954.881    88796273.698        1602.496          32.000  
G04  19276954.651   101301075.666         522.541          46.000    19276950.761    78935885.839         407.216          43.000  
G02  21875671.202   114957413.480       -4065.309          42.000                                                                  
G03  18867256.005    99148098.319       -1662.792          49.000    18867253.512    77258246.270       -1295.646          40.000  
G31  20836928.033   109498791.240       -1195.757          48.000    20836923.238    85323991.862        -931.691          38.000  
G19  21162160.461   111207897.807       -1582.962          39.000                                                                  
G17  21805921.641   114590889.004       -2934.299          42.000    21805918.923    89291583.702       -2286.662          36.000  
G28  22502088.577   118249273.792       -3131.103          43.000    22502085.509    92142272.724       -2440.161          38.000  
E12  22914525.159   120416652.497         -35.786          43.000    22914523.239    92267288.952         -27.417          46.000  
E10  24136475.352   126838019.061        1175.432          44.000    24136475.809    97187584.325         900.749          45.000  
E33  23128262.306   121539836.596       -3037.494          47.000    23128261.259    93127922.269       -2327.441          46.000  
E19  22486908.531   118169489.900         449.871          41.000    22486906.779    90545451.465         344.564          42.000  
G09                                                                  21582804.464    88377992.980        1818.244          32.000  
> 2024 06 26 15 00 31.9960000  0 13                     
G06  21684565.191   113953145.209        2056.605          42.000    21684563.475    88794671.158        1602.554          32.000  
G04  19276855.333   101300553.439         522.161          46.000    19276851.432    78935478.912         406.762          43.000  
G02  21876444.851   114961478.900       -4065.538          42.000                                                                  
G03  18867572.444    99149761.153       -1662.880          49.000    18867569.893    77259541.985       -1295.818          40.000  
G31  20837155.562   109499987.243       -1196.279          48.000    20837150.816    85324923.810        -932.144          38.000  
G19  21162461.637   111209480.732       -1583.052          39.000                                                                  
G17  21806479.989   114593823.342       -2934.340          41.000    21806477.376    89293870.208       -2286.530          36.000  
G28  22502684.347   118252405.106       -3131.476          43.000    22502681.419    92144712.714       -2440.289          38.000  
E12  22914531.866   120416688.337         -35.894          43.000    22914530.005    92267316.408         -27.347          46.000  
E10  24136251.490   126836843.425        1175.833          44.000    24136252.101    97186683.529         900.769          45.000  
E33  23128840.249   121542874.152       -3037.634          47.000    23128839.225    93130249.737       -2327.529          45.000  
E19  22486822.539   118169040.003         450.050          42.000    22486821.075    90545106.736         344.711          42.000  
G09                                                                  21582360.579    88376174.008        1818.716          32.000  
> 2024 06 26 15 00 32.9960000  0 13                     
G06  21684173.978   113951088.810        2056.302          42.000    21684172.179    88793068.784        1602.502          32.000  
G04  19276756.074   101300031.606         521.833          46.000    19276752.109    78935072.283         406.467          43.000  
G02  21877218.539   114965544.460       -4065.595          40.000                                                                  
G03  18867888.796    99151424.326       -1663.187          49.000    18867886.332    77260837.971       -1296.109          40.000  
G31  20837383.287   109501183.874       -1196.707          48.000    20837378.496    85325856.248        -932.360          38.000  
G19  21162762.967   111211064.228       -1583.593          40.000                                                                  
G17  21807038.543   114596758.015       -2934.507          41.000    21807035.901    89296156.985       -2287.236          36.000  
G28  22503280.153   118255536.830       -3131.647          43.000    22503277.354    92147153.026       -2440.680          38.000  
E12  22914538.633   120416724.451         -36.008          43.000    22914536.823    92267344.103         -27.825          46.000  
E10  24136028.161   126835667.990        1175.475          44.000    24136028.394    97185782.856         900.778          45.000  
E33  23129418.213   121545911.895       -3037.601          47.000    23129417.027    93132577.383       -2327.763          45.000  
E19  22486737.258   118168590.356         449.693          42.000    22486735.384    90544762.188         344.744          42.000  
G09                                                                  21581916.100    88374355.092        1819.384          31.000  
> 2024 06 26 15 00 33.9960000  0 13                     
G06  21683782.640   113949032.748        2055.862          42.000    21683780.910    88791466.664        1601.574          32.000  
G04  19276656.958   101299510.298         520.890          46.000    19276652.858    78934666.059         405.889          43.000  
G02  21877992.247   114969610.270       -4065.920          41.000                                                                  
G03  18868205.442    99153087.920       -1663.895          49.000    18868202.895    77262134.272       -1296.338          40.000  
G31  20837611.142   109502381.238       -1197.707          48.000    20837606.399    85326789.257        -933.398          37.000  
G19  21163064.358   111212648.461       -1584.604          39.000                                                                  
G17  21807597.056   114599693.113       -2935.232          42.000    21807594.466    89298444.070       -2287.671          36.000  
G28  22503876.262   118258669.119       -3132.751          43.000    22503873.412    92149593.734       -2441.071          38.000  
E12  22914545.974   120416760.974         -36.461          43.000    22914543.689    92267372.085         -28.271          46.000  
E10  24135804.392   126834492.811        1175.027          44.000    24135804.891    97184882.414         900.289          45.000  
E33  23129996.257   121548949.990       -3038.276          46.000    23129995.170    93134905.272       -2328.108          46.000  
E19  22486651.888   118168141.020         449.083          42.000    22486649.900    90544417.917         344.089          42.000  
G09                                                                  21581471.964    88372536.434        1818.141          30.000  
> 2024 06 26 15 00 34.9960000  0 13                     
G06  21683391.314   113946977.109        2055.406          42.000    21683389.680    88789864.847        1601.830          32.000  
G04  19276557.858   101298989.595         520.416          46.000    19276553.706    78934260.319         405.399          43.000  
G02  21878766.008   114973676.531       -4066.166          42.000                                                                  
G03  18868522.123    99154752.034       -1664.275          49.000    18868519.544    77263430.976       -1296.714          40.000  
G31  20837839.123   109503579.417       -1198.570          48.000    20837834.450    85327722.914        -933.943          38.000  
G19  21163366.024   111214233.454       -1585.121          39.000                                                                  
G17  21808155.666   114602628.772       -2935.886          42.000    21808153.125    89300731.572       -2287.715          36.000  
G28  22504472.487   118261801.976       -3133.221          43.000    22504469.607    92152034.938       -2441.614          38.000  
E12  22914553.096   120416798.009         -37.144          43.000    22914550.775    92267400.455         -28.524          46.000  
E10  24135580.605   126833317.994        1174.858          44.000    24135581.419    97183982.230         900.191          45.000  
E33  23130574.695   121551988.545       -3038.598          47.000    23130573.453    93137233.505       -2328.361          46.000  
E19  22486566.586   118167692.157         448.667          42.000    22486564.481    90544073.962         343.842          42.000  
G09                                                                  21581027.709    88370717.957        1818.406          30.000  
> 2024 06 26 15 00 35.9960000  0 13                     
G06  21683000.212   113944921.702        2055.114          42.000    21682998.478    88788263.244        1602.080          32.000  
G04  19276458.906   101298469.345         519.956          46.000    19276454.681    78933854.919         405.377          43.000  
G02  21879539.757   114977742.958       -4066.338          42.000                                                                  
G03  18868838.871    99156416.514       -1664.510          49.000    18868836.258    77264727.993       -1296.934          40.000  
G31  20838067.267   109504778.246       -1199.052          47.000    20838062.485    85328657.054        -934.137          37.000  
G19  21163667.834   111215819.101       -1586.084          39.000                                                                  
G17  21808714.407   114605564.796       -2935.922          42.000    21808711.823    89303019.371       -2287.919          36.000  
G28  22505068.776   118264935.306       -3133.350          43.000    22505065.735    92154476.500       -2441.998          38.000  
E12  22914560.285   120416835.376         -37.534          43.000    22914557.864    92267429.077         -28.688          46.000  
E10  24135357.402   126832143.420        1174.513          44.000    24135357.783    97183082.234         899.991          45.000  
E33  23131152.951   121555027.362       -3038.713          46.000    23131151.735    93139561.948       -2328.488          46.000  
E19  22486481.135   118167243.550         448.646          42.000    22486479.260    90543730.234         343.830          42.000  
G09                                                                  21580583.642    88368899.693        1818.381          30.000  
> 2024 06 26 15 00 36.9960000  0 13                     
G06  21682609.048   113942866.703        2054.697          42.000    21682607.438    88786661.937        1601.216          33.000  
G04  19276359.954   101297949.665         519.280          47.000    19276355.888    78933449.983         404.533          43.000  
G02  21880313.669   114981809.731       -4067.217          42.000                                                                  
G03  18869155.693    99158081.514       -1665.508          49.000    18869153.126    77266025.396       -1297.972          41.000  
G31  20838295.552   109505977.870       -1200.234          47.000    20838290.707    85329591.816        -935.013          37.000  
G19  21163969.625   111217405.492       -1586.955          39.000                                                                  
G17  21809273.297   114608501.305       -2936.757          42.000    21809270.566    89305307.545       -2288.093          35.000  
G28  22505665.340   118268069.240       -3134.204          44.000    22505662.061    92156918.489       -2442.468          38.000  
G09  21580139.898   113404399.8221       2332.990          32.000    21580139.676    88367081.647        1817.750          30.000  
E12  22914567.596   120416873.194         -38.266          43.000    22914565.007    92267458.057         -29.206          46.000  
E10  24135134.062   126830969.180        1173.786          44.000    24135134.177    97182182.487         899.572          45.000  
E33  23131731.276   121558066.591       -3039.597          46.000    23131729.961    93141890.688       -2328.879          45.000  
E19  22486395.825   118166795.359         447.754          42.000    22486393.806    90543386.814         342.977          42.000  
> 2024 06 26 15 00 37.9960000  0 13                     
G06  21682218.049   113940812.067        2054.579          42.000    21682216.425    88785060.976        1600.636          33.000  
G04  19276261.227   101297430.587         518.748          47.000    19276257.132    78933045.503         404.098          44.000  
G02  21881087.617   114985876.812       -4066.988          42.000                                                                  
G03  18869472.609    99159746.992       -1665.720          49.000    18869470.113    77267323.170       -1298.003          40.000  
G31  20838523.935   109507178.295       -1200.885          47.000    20838519.112    85330527.218        -935.856          37.000  
G19  21164271.556   111218992.621       -1587.373          39.000                                                                  
G17  21809832.236   114611438.322       -2937.287          42.000    21809829.443    89307596.131       -2288.810          35.000  
G28  22506261.846   118271203.758       -3134.753          43.000    22506258.579    92159360.980       -2442.841          38.000  
G09  21579695.192   113402066.990        2332.531          32.000    21579695.818    88365263.901        1816.955          29.000  
E12  22914574.804   120416911.510         -38.655          43.000    22914572.365    92267487.417         -29.547          46.000  
E10  24134910.424   126829795.294        1173.628          44.000    24134910.980    97181283.021         899.271          45.000  
E33  23132309.849   121561106.224       -3039.862          46.000    23132308.370    93144219.773       -2329.310          45.000  
E19  22486310.689   118166347.581         447.350          42.000    22486308.608    90543043.701         343.061          42.000  
> 2024 06 26 15 00 38.9960000  0 13                     
G06  21681827.098   113938757.651        2054.183          41.000    21681825.513    88783460.102        1601.187          33.000  
G04  19276162.595   101296911.915         518.272          47.000    19276158.527    78932641.343         403.837          44.000  
G02  21881861.646   114989944.042       -4067.182          40.000                                                                  
G03  18869789.531    99161412.793       -1666.035          49.000    18869787.097    77268621.201       -1298.086          40.000  
G31  20838752.485   109508379.320       -1201.499          48.000    20838747.673    85331463.083        -936.024          37.000  
G19  21164573.724   111220580.414       -1588.251          40.000                                                                  
G17  21810391.241   114614375.677       -2937.713          42.000    21810388.453    89309884.992       -2289.290          35.000  
G28  22506858.331   118274338.685       -3135.321          43.000    22506855.178    92161803.784       -2443.237          37.000  
G09  21579251.035   113399734.333        2332.618          32.000    21579251.723    88363446.265        1817.141          29.000  
E12  22914582.369   120416950.099         -38.920          43.000    22914579.691    92267516.982         -29.757          46.000  
E10  24134686.983   126828621.550        1173.564          44.000    24134687.574    97180383.673         899.121          45.000  
E33  23132888.115   121564146.079       -3040.226          46.000    23132886.716    93146549.001       -2329.486          45.000  
E19  22486225.361   118165900.013         447.047          42.000    22486223.429    90542700.769         342.562          42.000  
> 2024 06 26 15 00 39.9960000  0 13                     
G06  21681436.217   113936703.614        2053.746          39.000    21681434.749    88781859.599        1599.819          33.000  
G04  19276063.895   101296393.802         517.772          47.000    19276059.875    78932237.618         403.367          44.000  
G02  21882635.744   114994011.608       -4067.796          41.000                                                                  
G03  18870106.625    99163079.089       -1666.691          49.000    18870104.279    77269919.613       -1298.806          41.000  
G31  20838981.158   109509581.137       -1202.255          47.000    20838976.274    85332399.538        -936.571          37.000  
G19  21164875.946   111222168.919       -1588.978          41.000                                                                  
G17  21810950.189   114617313.489       -2938.288          43.000    21810947.565    89312174.196       -2289.937          35.000  
G28  22507454.977   118277474.182       -3135.925          43.000    22507451.776    92164247.025       -2443.799          37.000  
G09  21578807.025   113397402.032        2331.897          32.000    21578807.971    88361628.840        1817.228          29.000  
E12  22914589.647   120416989.133         -39.443          43.000    22914587.165    92267546.902         -30.156          46.000  
E10  24134463.826   126827448.141        1173.172          44.000    24134464.221    97179484.574         898.894          45.000  
E33  23133466.555   121567186.320       -3040.577          46.000    23133465.424    93148878.532       -2329.777          45.000  
E19  22486140.269   118165452.868         446.884          42.000    22486138.201    90542358.147         342.403          42.000  
> 2024 06 26 15 00 40.9960000  0 14                     
G06  21681045.563   113934649.919        2053.482          40.000    21681043.951    88780259.306        1600.419          33.000  
G04  19275965.429   101295876.222         517.401          46.000    19275961.386    78931834.319         403.007          44.000  
G02  21883409.848   114998079.442       -4067.934          41.000                                                                  
G03  18870423.785    99164745.820       -1667.009          49.000    18870421.437    77271218.364       -1298.730          41.000  
G31  20839210.003   109510783.691       -1202.812          47.000    20839205.023    85333336.617        -937.587          37.000  
G19  21165178.376   111223758.171       -1589.546          42.000                                                                  
G17  21811509.241   114620251.777       -2938.588          43.000    21811506.754    89314463.758       -2289.692          35.000  
G28  22508051.679   118280610.206       -3136.255          44.000    22508048.525    92166690.703       -2444.202          37.000  
G09  21578363.306   113395069.903        2332.072          32.000    21578364.130    88359811.637        1817.167          29.000  
E12  22914597.125   120417028.599         -39.712          43.000    22914594.829    92267577.142         -30.418          46.000  
E10  24134240.729   126826275.062        1172.848          44.000    24134241.063    97178585.708         898.875          45.000  
E33  23134045.304   121570226.928       -3040.857          46.000    23134043.678    93151208.348       -2330.023          44.000  
E19  22486055.330   118165006.052         446.502          42.000    22486053.168    90542015.788         342.221          42.000  
E02  27337703.144   143660598.8911      -1438.397          28.000                                                                  
> 2024 06 26 15 00 41.9960000  0 14                     
G06  21680654.724   113932596.530        2053.245          40.000    21680653.262    88778659.265        1600.002          33.000  
G04  19275867.113   101295359.168         516.728          46.000    19275863.099    78931431.417         402.555          44.000  
G02  21884183.944   115002147.559       -4068.321          42.000                                                                  
G03  18870741.071    99166413.005       -1667.542          50.000    18870738.701    77272517.467       -1299.449          41.000  
G31  20839438.884   109511986.980       -1203.783          47.000    20839433.829    85334274.224        -937.616          37.000  
G19  21165480.836   111225348.051       -1590.281          42.000                                                                  
G17  21812068.515   114623190.498       -2938.909          43.000    21812066.000    89316753.672       -2290.228          35.000  
G28  22508648.556   118283746.766       -3136.884          44.000    22508645.410    92169134.762       -2444.141          38.000  
G09  21577919.494   113392738.095        2331.390          32.000    21577920.469    88357994.607        1817.235          28.000  
E12  22914604.912   120417068.463         -40.115          43.000    22914602.383    92267607.692         -30.749          46.000  
E10  24134017.423   126825102.231        1172.584          44.000    24134017.886    97177687.052         898.495          45.000  
E33  23134624.049   121573267.855       -3041.089          46.000    23134622.308    93153538.411       -2330.301          44.000  
E19  22485970.270   118164559.587         446.378          43.000    22485968.364    90541673.692         341.818          42.000  
E02  27337984.029   143662037.196       -1439.083          29.000                                                                  
> 2024 06 26 15 00 42.9960000  0 14                     
G06  21680264.055   113930543.472        2052.718          42.000    21680262.581    88777059.499        1599.026          33.000  
G04  19275768.886   101294842.617         516.074          46.000    19275764.777    78931028.902         402.104          44.000  
G02  21884958.046   115006215.914       -4068.716          40.000                                                                  
G03  18871058.462    99168080.582       -1667.989          49.000    18871056.095    77273816.879       -1299.489          41.000  
G31  20839667.856   109513190.969       -1204.435          46.000    20839662.979    85335212.427        -938.729          38.000  
G19  21165783.413   111226938.660       -1591.097          40.000                                                                  
G17  21812627.856   114626129.655       -2939.727          43.000    21812625.279    89319043.881       -2290.141          35.000  
G28  22509245.538   118286883.839       -3137.830          44.000    22509242.345    92171579.246       -2444.794          38.000  
G09  21577475.591   113390406.506        2331.302          33.000    21577476.820    88356177.780        1816.868          28.000  
E12  22914612.327   120417108.723         -40.653          43.000    22914609.902    92267638.547         -31.265          46.000  
E10  24133794.195   126823929.678        1171.972          44.000    24133794.711    97176788.597         898.200          45.000  
E33  23135203.043   121576309.119       -3041.665          47.000    23135200.952    93155868.717       -2330.608          45.000  
E19  22485885.217   118164113.459         445.702          43.000    22485883.272    90541331.853         341.639          41.000  
E02  27338249.684   143663475.966       -1439.401          28.000                                                                  
> 2024 06 26 15 00 43.9960000  0 14                     
G06  21679873.413   113928490.701        2052.528          42.000    21679871.985    88775459.916        1599.504          34.000  
G04  19275670.752   101294326.555         515.906          46.000    19275666.669    78930626.787         401.768          44.000  
G02  21885732.279   115010284.536       -4068.709          40.000                                                                  
G03  18871375.883    99169748.584       -1668.388          49.000    18871373.428    77275116.630       -1300.150          41.000  
G31  20839897.044   109514395.678       -1205.125          47.000    20839892.264    85336151.162        -939.237          38.000  
G19  21166086.223   111228529.975       -1591.668          42.000                                                                  
G17  21813187.115   114629069.186       -2939.833          44.000    21813184.637    89321334.480       -2290.815          35.000  
G28  22509842.534   118290021.394       -3137.842          44.000    22509839.293    92174024.098       -2445.026          37.000  
G09  21577031.635   113388075.095        2331.811          33.000    21577033.219    88354361.200        1816.468          29.000  
E12  22914620.021   120417149.360         -40.894          43.000    22914617.599    92267669.678         -31.329          46.000  
E10  24133571.169   126822757.347        1172.241          44.000    24133571.540    97175890.336         898.240          45.000  
E33  23135782.012   121579350.701       -3041.759          47.000    23135779.686    93158199.286       -2330.769          44.000  
E19  22485800.507   118163667.632         445.545          43.000    22485798.339    90540990.237         341.528          41.000  
E02  27338531.021                       -1439.608          27.000                                                                  
> 2024 06 26 15 00 44.9960000  0 14                     
G06  21679482.822   113926438.252        2052.207          43.000    21679481.371    88773860.595        1599.327          33.000  
G04  19275572.685   101293811.011         515.326          46.000    19275568.529    78930225.055         401.574          44.000  
G02  21886506.507   115014353.435       -4069.057          42.000                                                                  
G03  18871693.364    99171417.012       -1668.622          50.000    18871690.934    77276416.706       -1300.154          41.000  
G31  20840126.301   109515601.119       -1205.803          47.000    20840121.646    85337090.476        -939.982          37.000  
G19  21166389.215   111230121.938       -1592.384          41.000                                                                  
G17  21813746.517   114632009.202       -2940.156          42.000    21813744.070    89323625.410       -2291.292          35.000  
G28  22510439.631   118293159.486       -3138.287          44.000    22510436.436    92176469.382       -2445.953          37.000  
G09  21576587.708   113385744.074        2330.881          32.000    21576589.558    88352544.766        1817.131          29.000  
E12  22914627.892   120417190.400         -41.277          43.000    22914625.440    92267701.135         -31.683          46.000  
E10  24133347.804   126821585.340        1171.824          44.000    24133348.387    97174992.297         897.986          45.000  
E33  23136361.162   121582392.604       -3042.050          47.000    23136358.583    93160530.105       -2331.018          44.000  
E19  22485716.029   118163222.142         445.403          43.000    22485713.707    90540648.892         341.273          41.000  
E02  27338803.295   143666380.7881      -1439.250          27.000                                                                  
> 2024 06 26 15 00 45.9960000  0 14                     
G06  21679092.383   113924386.185        2051.825          43.000    21679090.951    88772261.623        1598.344          33.000  
G04  19275474.832   101293296.050         514.605          46.000    19275470.511    78929823.787         400.988          44.000  
G02  21887280.754   115018422.650       -4069.508          44.000                                                                  
G03  18872011.037    99173085.933       -1669.422          50.000    18872008.431    77277717.158       -1300.757          41.000  
G31  20840355.759   109516807.348       -1206.837          47.000    20840351.080    85338030.396        -940.620          37.000  
G19  21166692.375   111231714.683       -1593.436          41.000                                                                  
G17  21814306.172   114634949.715       -2940.834          43.000    21814303.620    89325916.701       -2291.840          35.000  
G28  22511036.871   118296298.152       -3138.855          44.000    22511033.594    92178915.105       -2445.972          37.000  
G09  21576143.787   113383413.284        2331.055          32.000    21576146.012    88350728.630        1815.783          29.000  
E12  22914635.929   120417231.913         -41.875          43.000    22914633.264    92267732.938         -32.173          46.000  
E10  24133124.882   126820413.641        1171.372          43.000    24133125.311    97174094.510         897.698          45.000  
E33  23136939.848   121585434.924       -3042.582          47.000    23136937.672    93162861.226       -2331.361          44.000  
E19  22485631.393   118162777.081         444.735          43.000    22485629.094    90540307.873         340.795          42.000  
E02  27339072.629   143667821.106       -1440.602          27.000                                                                  
> 2024 06 26 15 00 46.9960000  0 14                     
G06  21678701.991   113922334.386        2051.502          43.000    21678700.484    88770662.808        1598.796          33.000  
G04  19275376.909   101292781.559         514.097          46.000    19275372.597    78929422.897         400.504          44.000  
G02  21888055.196   115022492.112       -4069.642          45.000                                                                  
G03  18872328.722    99174755.247       -1669.583          50.000    18872326.078    77279017.923       -1300.937          41.000  
G31  20840585.421   109518014.260       -1207.281          46.000    20840580.807    85338970.849        -940.868          37.000  
G19  21166995.644   111233308.086       -1593.903          42.000                                                                  
G17  21814865.775   114637890.610       -2941.040          43.000    21814863.213    89328208.297       -2291.583          35.000  
G28  22511634.116   118299437.318       -3139.508          44.000    22511631.015    92181361.191       -2446.149          37.000  
G09  21575699.971   113381082.752        2330.791          33.000    21575702.391    88348912.628        1815.460          29.000  
E12  22914643.820   120417273.774         -41.990          43.000    22914641.149    92267765.007         -32.134          46.000  
E10  24132901.909   126819242.195        1171.303          43.000    24132902.374    97173196.912         897.431          45.000  
E33  23137518.690   121588477.541       -3042.861          46.000    23137516.757    93165192.578       -2331.431          44.000  
E19  22485546.659   118162332.301         444.530          43.000    22485544.492    90539967.071         340.509          42.000  
E02  27339343.319   143669261.780       -1440.732          26.000                                                                  
> 2024 06 26 15 00 47.9960000  0 14                     
G06  21678311.643   113920282.870        2051.376          43.000    21678310.129    88769064.224        1598.839          34.000  
G04  19275279.005   101292267.531         513.873          46.000    19275274.800    78929022.357         400.372          44.000  
G02  21888829.570   115026561.770       -4069.688          44.000                                                                  
G03  18872646.434    99176424.938       -1669.911          50.000    18872643.780    77280318.982       -1301.147          40.000  
G31  20840815.131   109519221.842       -1207.841          47.000    20840810.511    85339911.812        -941.326          37.000  
G19  21167299.016   111234902.130       -1594.348          42.000                                                                  
G17  21815425.520   114640831.856       -2941.094          42.000    21815422.858    89330500.203       -2292.176          35.000  
G28  22512231.364   118302576.936       -3139.923          44.000    22512228.388    92183807.679       -2446.619          37.000  
G09  21575256.028   113378752.396        2330.335          31.000    21575258.733    88347096.785        1815.675          29.000  
E12  22914651.952   120417315.993         -42.416          43.000    22914649.211    92267797.359         -32.493          46.000  
E10  24132679.292   126818070.963        1171.099          43.000    24132679.391    97172299.486         897.364          45.000  
E33  23138097.852   121591520.436       -3042.983          46.000    23138095.784    93167524.152       -2331.776          44.000  
E19  22485462.170   118161887.796         444.431          42.000    22485459.925    90539626.480         340.460          42.000  
E02  27339613.634                       -1440.767          25.000                                                                  
> 2024 06 26 15 00 48.9960000  0 14                     
G06  21677921.258   113918231.629        2050.767          43.000    21677919.865    88767465.873        1598.277          34.000  
G04  19275181.254   101291753.990         513.015          46.000    19275177.187    78928622.195         399.851          44.000  
G02  21889604.140   115030631.661       -4070.128          43.000                                                                  
G03  18872964.178    99178095.009       -1670.413          50.000    18872961.647    77281620.355       -1301.694          41.000  
G31  20841045.032   109520430.142       -1208.980          47.000    20841040.388    85340853.346        -942.077          37.000  
G19  21167602.483   111236496.836       -1595.360          43.000                                                                  
G17  21815985.252   114643773.528       -2941.792          42.000    21815982.701    89332792.399       -2292.587          35.000  
G28  22512828.746   118305717.054       -3140.429          43.000    22512825.948    92186254.494       -2447.107          37.000  
E12  22914660.275   120417358.573         -42.946          43.000    22914657.389    92267829.979         -32.766          46.000  
E10  24132456.243   126816899.966        1170.916          43.000    24132456.520    97171402.230         897.153          45.000  
E33  23138677.228   121594563.634       -3043.390          47.000    23138674.806    93169855.947       -2331.954          44.000  
E19  22485377.792   118161443.603         444.032          42.000    22485375.252    90539286.133         340.136          42.000  
E02  27339888.449                       -1442.380          25.000                                                                  
G09                                                                  21574815.541    88345281.076        1815.926          29.000  
> 2024 06 26 15 00 49.9960000  0 14                     
G06  21677530.996   113916180.769        2050.676          42.000    21677529.674    88765867.809        1597.879          34.000  
G04  19275083.547   101291240.990         512.867          45.000    19275079.615    78928222.461         399.542          45.000  
G02  21890378.673   115034701.840       -4070.327          42.000                                                                  
G03  18873282.127    99179765.562       -1670.748          51.000    18873279.525    77282922.083       -1301.800          41.000  
G31  20841275.060   109521639.174       -1209.423          47.000    20841270.398    85341795.447        -942.498          37.000  
G19  21167906.108   111238092.276       -1596.021          43.000                                                                  
G17  21816545.123   114646715.663       -2942.276          42.000    21816542.622    89335084.981       -2292.795          35.000  
G28  22513426.351   118308857.728       -3140.924          43.000    22513423.534    92188701.768       -2447.498          36.000  
E12  22914668.626   120417401.585         -43.369          43.000    22914665.500    92267862.944         -33.242          46.000  
E10  24132232.827   126815729.298        1170.532          43.000    24132233.831    97170505.232         896.819          45.000  
E33  23139256.615   121597607.226       -3043.809          47.000    23139253.907    93172188.043       -2332.288          44.000  
E19  22485293.262   118160999.791         443.702          42.000    22485290.863    90538946.072         339.847          42.000  
E02  27340170.780   143673525.3161      -1442.530          27.000                                                                  
G09                                                                  21574372.270    88343465.620        1815.417          28.000  
> 2024 06 26 15 00 50.9960000  0 14                     
G06  21677140.780   113914130.210        2050.257          42.000    21677139.495    88764269.947        1597.970          34.000  
G04  19274986.004   101290728.518         512.292          45.000    19274982.128    78927823.137         399.127          44.000  
G02  21891153.116   115038772.305       -4070.558          42.000                                                                  
G03  18873600.126    99181436.563       -1671.256          51.000    18873597.547    77284224.163       -1302.335          41.000  
G31  20841505.184   109522848.929       -1210.071          47.000    20841500.559    85342738.102        -943.278          37.000  
G19  21168209.935   111239688.386       -1596.401          43.000                                                                  
G17  21817105.081   114649658.236       -2942.686          42.000    21817102.602    89337377.893       -2292.983          34.000  
G28  22514024.022   118311998.940       -3141.522          43.000    22514021.220    92191149.466       -2448.022          36.000  
E12  22914676.878   120417445.005         -43.564          43.000    22914673.713    92267896.211         -33.334          46.000  
E10  24132009.886   126814558.927        1170.207          42.000    24132011.069    97169608.448         896.785          45.000  
E33  23139835.661   121600651.147       -3044.038          47.000    23139833.065    93174520.396       -2332.517          44.000  
E19  22485208.937   118160556.319         443.278          42.000    22485206.603    90538606.259         339.786          42.000  
E02  27340454.779   143674967.679       -1441.977          30.000    27340448.998   110088658.7391      -1104.786          35.000  
G09                                                                  21573928.991    88341650.331        1815.214          28.000  
> 2024 06 26 15 00 51.9960000  0 14                     
G06  21676750.567   113912079.961        2050.174          42.000    21676749.288    88762672.354        1597.811          34.000  
G04  19274888.497   101290216.555         511.872          45.000    19274884.739    78927424.198         398.964          44.000  
G02  21891927.801   115042842.993       -4070.529          42.000                                                                  
G03  18873918.191    99183107.982       -1671.535          50.000    18873915.582    77285526.564       -1302.471          41.000  
G31  20841735.422   109524059.434       -1210.573          47.000    20841730.966    85343681.391        -943.653          37.000  
G19  21168513.785   111241285.203       -1597.056          42.000                                                                  
G17  21817665.022   114652601.249       -2942.963          43.000    21817662.631    89339671.135       -2293.156          34.000  
G28  22514621.846   118315140.650       -3141.888          44.000    22514618.942    92193597.534       -2448.450          36.000  
E12  22914685.124   120417488.822         -43.933          43.000    22914682.098    92267929.795         -33.720          46.000  
E10  24131787.570   126813388.805        1170.080          42.000    24131788.285    97168711.860         896.588          45.000  
E33  23140414.573   121603695.409       -3044.269          46.000    23140412.327    93176853.002       -2332.740          44.000  
E19  22485124.466   118160113.175         443.181          42.000    22485122.424    90538266.721         339.504          42.000  
E02  27340730.230   143676410.609       -1443.541          29.000    27340724.152   110089764.356       -1105.578          35.000  
G09                                                                  21573485.820    88339835.323        1814.751          29.000  
> 2024 06 26 15 00 52.9960000  0 14                     
G06  21676360.286   113910029.983        2049.724          42.000    21676359.230    88761074.965        1597.873          34.000  
G04  19274791.151   101289705.043         511.298          46.000    19274787.380    78927025.611         398.548          44.000  
G02  21892702.492   115046913.898       -4070.967          42.000                                                                  
G03  18874236.437    99184779.744       -1671.994          50.000    18874233.842    77286829.250       -1303.066          41.000  
G31  20841965.900   109525270.586       -1211.422          47.000    20841961.478    85344625.143        -944.235          37.000  
G19  21168817.865   111242882.661       -1597.770          43.000                                                                  
G17  21818225.117   114655544.628       -2943.476          43.000    21818222.663    89341964.626       -2293.417          34.000  
G28  22515219.746   118318282.785       -3142.273          44.000    22515216.855    92196045.969       -2448.792          36.000  
E12  22914693.500   120417532.961         -44.392          43.000    22914690.354    92267963.611         -34.085          46.000  
E10  24131564.970   126812218.884        1169.761          43.000    24131565.719    97167815.419         896.326          45.000  
E33  23140993.779   121606739.905       -3044.611          46.000    23140991.727    93179185.800       -2333.019          44.000  
E19  22485040.313   118159670.276         442.686          42.000    22485037.977    90537927.347         339.264          42.000  
E02  27341005.198   143677853.913       -1443.646          29.000    27340998.489   110090870.264       -1106.262          35.000  
G09                                                                  21573042.748    88338020.410        1814.672          29.000  
> 2024 06 26 15 00 53.9960000  0 14                     
G06  21675970.269   113907980.251        2049.559          41.000    21675969.205    88759477.803        1596.973          34.000  
G04  19274693.876   101289193.972         510.802          46.000    19274690.131    78926627.376         398.051          44.000  
G02  21893477.248   115050985.009       -4071.449          43.000                                                                  
G03  18874554.818    99186451.885       -1672.398          51.000    18874552.051    77288132.196       -1303.067          41.000  
G31  20842196.542   109526482.375       -1212.195          47.000    20842192.067    85345569.392        -944.925          36.000  
G19  21169122.088   111244480.750       -1598.591          43.000                                                                  
G17  21818785.336   114658488.342       -2944.042          42.000    21818782.713    89344258.455       -2293.622          34.000  
G28  22515817.828   118321425.399       -3142.987          44.000    22515814.796    92198494.755       -2448.938          36.000  
E12  22914701.768   120417577.433         -44.616          43.000    22914699.014    92267997.695         -34.229          46.000  
E10  24131342.855   126811049.186        1169.509          43.000    24131343.207    97166919.165         896.044          45.000  
E33  23141573.225   121609784.695       -3045.028          46.000    23141571.006    93181518.815       -2333.158          44.000  
E19  22484956.111   118159227.651         442.369          42.000    22484953.950    90537588.205         338.949          42.000  
E02  27341282.940   143679297.589       -1443.669          30.000    27341272.518   110091976.471       -1106.182          35.000  
G09                                                                  21572599.579    88336205.699        1814.316          28.000  
> 2024 06 26 15 00 54.9960000  0 14                     
G06  21675580.402   113905930.898        2049.147          42.000    21675579.188    88757880.935        1596.199          33.000  
G04  19274596.745   101288683.445         510.259          46.000    19274593.045    78926229.564         397.656          44.000  
G02  21894252.010   115055056.434       -4071.669          43.000                                                                  
G03  18874873.142    99188124.486       -1672.906          50.000    18874870.366    77289435.534       -1303.753          41.000  
G31  20842427.273   109527694.936       -1212.979          48.000    20842422.799    85346514.235        -944.952          37.000  
G19  21169426.349   111246079.529       -1599.066          43.000                                                                  
G17  21819345.407   114661432.512       -2944.456          42.000    21819342.911    89346552.634       -2294.500          34.000  
G28  22516415.933   118324568.574       -3143.518          44.000    22516412.804    92200943.953       -2449.768          35.000  
E12  22914710.569   120417622.359         -45.378          43.000    22914707.640    92268032.114         -34.702          46.000  
E10  24131120.250   126809879.797        1169.238          43.000    24131120.718    97166023.147         895.814          45.000  
E33  23142152.626   121612829.845       -3045.456          46.000    23142150.374    93183852.108       -2333.430          44.000  
E19  22484871.796   118158785.428         441.877          42.000    22484869.667    90537249.356         338.712          42.000  
E02  27341552.719   143680741.755       -1444.347          28.000    27341547.538   110093083.059       -1106.777          35.000  
G09                                                                  21572156.036    88334391.161        1814.422          28.000  
> 2024 06 26 15 00 55.9960000  0 14                     
G06  21675190.442   113903881.799        2048.798          42.000    21675189.204    88756284.212        1596.306          33.000  
G04  19274499.575   101288173.374         509.881          46.000    19274495.965    78925832.114         397.295          44.000  
G02  21895026.866   115059128.039       -4071.655          44.000                                                                  
G03  18875191.567    99189797.444       -1673.093          50.000    18875188.644    77290739.142       -1303.973          41.000  
G31  20842658.197   109528908.182       -1213.790          48.000    20842653.675    85347459.634        -946.198          37.000  
G19  21169730.701   111247678.979       -1599.856          43.000                                                                  
G17  21819905.827   114664377.101       -2944.632          44.000    21819903.180    89348847.100       -2294.542          34.000  
G28  22517014.265   118327712.207       -3143.994          44.000    22517010.987    92203393.555       -2450.000          35.000  
E12  22914719.022   120417667.600         -45.380          43.000    22914716.176    92268066.794         -35.019          46.000  
E10  24130897.565   126808710.624        1168.933          43.000    24130898.441    97165127.298         895.583          45.000  
E33  23142732.042   121615875.274       -3045.634          46.000    23142729.974    93186185.626       -2333.510          44.000  
E19  22484787.345   118158343.472         441.671          42.000    22484785.606    90536910.719         338.322          42.000  
E02  27341811.216   143682186.365       -1444.321          27.000    27341822.371   110094189.967       -1107.334          35.000  
G09                                                                  21571712.564    88332576.716        1814.583          28.000  
> 2024 06 26 15 00 56.9960000  0 14                     
G06  21674800.570   113901833.024        2048.690          42.000    21674799.375    88754687.823        1595.930          34.000  
G04  19274402.510   101287663.885         509.289          45.000    19274398.984    78925435.110         396.856          45.000  
G02  21895801.778   115063199.948       -4072.042          44.000                                                                  
G03  18875510.099    99191470.907       -1673.503          50.000    18875507.093    77292043.117       -1303.897          41.000  
G31  20842889.382   109530122.184       -1214.251          48.000    20842884.685    85348405.596        -946.174          37.000  
G19  21170035.147   111249279.178       -1600.456          43.000                                                                  
G17  21820466.227   114667322.169       -2944.893          44.000    21820463.583    89351141.963       -2294.358          34.000  
G28  22517612.560   118330856.401       -3144.501          43.000    22517609.243    92205843.553       -2449.921          35.000  
E12  22914727.582   120417713.319         -45.849          43.000    22914724.971    92268101.818         -35.038          46.000  
E10  24130675.242   126807541.769        1168.762          43.000    24130675.831    97164231.695         895.464          45.000  
E33  23143311.593   121618921.102       -3046.033          46.000    23143309.771    93188519.457       -2334.045          44.000  
E19  22484703.293   118157901.908         441.415          41.000    22484701.606    90536572.368         338.460          42.000  
E02  27342090.751   143683631.438       -1445.297          27.000    27342097.400   110095297.251       -1107.255          34.000  
G09                                                                  21571269.335    88330762.596        1813.984          28.000  
> 2024 06 26 15 00 57.9960000  0 14                     
G06  21674410.756   113899784.570        2048.283          43.000    21674409.625    88753091.573        1596.079          34.000  
G04  19274305.566   101287154.842         508.733          45.000    19274302.240    78925038.462         396.348          44.000  
G02  21896576.685   115067272.074       -4072.088          42.000                                                                  
G03  18875828.575    99193144.730       -1674.107          50.000    18875825.682    77293347.418       -1304.696          41.000  
G31  20843120.639   109531336.858       -1215.021          48.000    20843115.903    85349352.106        -946.869          37.000  
G19  21170339.749   111250880.009       -1601.175          43.000                                                                  
G17  21821026.719   114670267.678       -2945.964          44.000    21821023.937    89353437.151       -2295.481          33.000  
G28  22518210.868   118334001.039       -3144.910          43.000    22518207.591    92208293.959       -2451.001          35.000  
E12  22914736.530   120417759.363         -46.203          43.000    22914733.636    92268137.110         -35.420          46.000  
E10  24130452.750   126806373.141        1168.568          43.000    24130453.498    97163336.248         895.363          45.000  
E33  23143890.784   121621967.194       -3046.290          46.000    23143889.375    93190853.470       -2334.197          44.000  
E19  22484619.262   118157460.652         441.061          41.000    22484617.586    90536234.263         337.939          42.000  
E02  27342375.543   143685076.975       -1446.196          27.000    27342372.570   110096404.848       -1107.569          34.000  
G09                                                                  21570826.242    88328948.576        1813.746          28.000  
> 2024 06 26 15 00 58.9960000  0 14                     
G06  21674021.122   113897736.464        2047.899          42.000    21674019.917    88751495.658        1596.363          34.000  
G04  19274208.782   101286646.356         508.210          45.000    19274205.457    78924642.254         395.836          44.000  
G02  21897351.637   115071344.534       -4072.617          43.000                                                                  
G03  18876147.272    99194819.036       -1674.628          50.000    18876144.331    77294652.065       -1304.913          41.000  
G31  20843351.950   109532552.310       -1215.868          48.000    20843347.183    85350299.193        -947.406          37.000  
G19  21170644.581   111252481.584       -1601.951          44.000                                                                  
G17  21821587.299   114673213.612       -2946.154          44.000    21821584.469    89355732.675       -2295.210          34.000  
G28  22518809.346   118337146.267       -3145.557          43.000    22518806.090    92210744.777       -2451.447          35.000  
E12  22914745.263   120417805.872         -46.853          43.000    22914742.690    92268172.736         -35.861          46.000  
E10  24130229.950   126805204.844        1168.015          43.000    24130231.043    97162441.070         894.998          45.000  
E33  23144470.545   121625013.698       -3046.970          45.000    23144469.018    93193187.792       -2334.663          44.000  
E19  22484535.475   118157019.762         440.551          41.000    22484533.596    90535896.427         337.687          42.000  
E02  27342648.795   143686523.103       -1447.104          26.000    27342647.669   110097512.863       -1108.667          35.000  
G09                                                                  21570383.174    88327134.780        1814.057          26.000  
> 2024 06 26 15 00 59.9960000  0 14                     
G06  21673631.416   113895688.726        2047.689          43.000    21673630.118    88749900.034        1595.423          34.000  
G04  19274112.205   101286138.479         507.487          45.000    19274108.866    78924246.496         395.476          44.000  
G02  21898126.586   115075417.364       -4073.036          42.000                                                                  
G03  18876466.079    99196493.843       -1675.090          50.000    18876463.052    77295957.102       -1305.386          41.000  
G31  20843583.389   109533768.550       -1216.886          47.000    20843578.602    85351246.938        -948.541          37.000  
G19  21170949.496   111254083.923       -1602.913          44.000                                                                  
G17  21822147.873   114676160.076       -2946.874          43.000    21822145.103    89358028.647       -2296.440          34.000  
G28  22519407.981   118340292.088       -3146.033          43.000    22519404.699    92213196.061       -2451.855          35.000  
E12  22914754.570   120417852.857         -47.339          43.000    22914751.618    92268208.738         -36.255          46.000  
E10  24130007.439   126804036.908        1167.595          42.000    24130008.832    97161546.141         894.805          45.000  
E33  23145050.298   121628060.566       -3047.082          45.000    23145048.880    93195522.403       -2334.844          44.000  
E19  22484451.710   118156579.262         440.362          42.000    22484449.681    90535558.907         337.292          42.000  
E02  27342923.355   143687969.590       -1446.339          26.000    27342923.126   110098621.236       -1108.406          34.000  
G09                                                                  21569940.112    88325321.385        1813.358          26.000  
> 2024 06 26 15 01 00.9960000  0 14                     
G06  21673241.791   113893641.242        2047.568          43.000    21673240.469    88748304.601        1594.676          34.000  
G04  19274015.450   101285630.992         507.280          45.000    19274012.212    78923851.050         395.331          44.000  
G02  21898901.610   115079490.348       -4072.941          42.000                                                                  
G03  18876784.779    99198168.958       -1675.177          50.000    18876781.844    77297262.387       -1305.513          41.000  
G31  20843814.949   109534985.401       -1216.964          48.000    20843810.130    85352195.137        -948.016          37.000  
G19  21171254.508   111255686.840       -1603.252          44.000                                                                  
G17  21822708.665   114679106.862       -2946.988          43.000    21822705.859    89360324.840       -2296.650          34.000  
G28  22520006.676   118343438.334       -3146.344          43.000    22520003.255    92215647.684       -2451.892          34.000  
E12  22914763.587   120417900.119         -47.280          44.000    22914760.744    92268244.955         -36.213          46.000  
E10  24129785.497   126802869.114        1167.990          43.000    24129786.659    97160651.347         894.836          45.000  
E33  23145630.127   121631107.669       -3047.138          46.000    23145628.853    93197857.204       -2334.910          44.000  
E19  22484368.065   118156139.048         440.043          42.000    22484365.876    90535221.603         337.431          42.000  
E02  27343198.520                       -1445.181          25.000    27343198.613   110099729.918       -1108.601          34.000  
G09                                                                  21569497.275    88323508.024        1813.528          28.000  
> 2024 06 26 15 01 01.9960000  0 14                     
G06  21672852.355   113891594.009        2047.365          42.000    21672851.011    88746709.353        1595.207          35.000  
G04  19273918.902   101285123.977         506.767          46.000    19273915.710    78923455.984         394.952          44.000  
G02  21899676.713   115083563.503       -4073.216          42.000                                                                  
G03  18877103.588    99199844.476       -1675.624          50.000    18877100.687    77298567.987       -1305.723          41.000  
G31  20844046.569   109536202.973       -1218.011          48.000    20844041.807    85353143.875        -949.114          37.000  
G19  21171559.675   111257290.431       -1603.771          44.000                                                                  
G17  21823269.588   114682054.066       -2947.502          43.000    21823266.685    89362621.338       -2296.645          34.000  
G28  22520605.610   118346585.059       -3146.851          43.000    22520602.011    92218099.608       -2451.233          34.000  
E12  22914772.454   120417947.769         -47.774          44.000    22914769.871    92268281.462         -36.581          47.000  
E10  24129563.639   126801701.583        1167.382          43.000    24129564.538    97159756.748         894.484          45.000  
E33  23146210.276   121634155.091       -3047.485          46.000    23146208.570    93200192.245       -2335.139          44.000  
E19  22484284.166   118155699.110         439.808          41.000    22484281.966    90534884.519         336.917          42.000  
E02  27343473.170                       -1443.581          23.000    27343473.838   110100838.929       -1108.879          34.000  
G09                                                                  21569054.187    88321694.812        1813.217          30.000  
> 2024 06 26 15 01 02.9960000  0 14                     
G06  21672462.880   113889547.120        2047.088          43.000    21672461.562    88745114.354        1595.161          35.000  
G04  19273822.478   101284617.525         506.009          46.000    19273819.365    78923061.351         394.340          44.000  
G02  21900451.777   115087636.928       -4073.856          41.000                                                                  
G03  18877422.403    99201520.444       -1676.200          50.000    18877419.618    77299873.940       -1306.260          41.000  
G31  20844278.432   109537421.267       -1218.702          47.000    20844273.571    85354093.202        -950.039          37.000  
G19  21171864.983   111258894.765       -1604.871          43.000                                                                  
G17  21823830.508   114685001.666       -2947.932          43.000    21823827.543    89364918.184       -2296.897          33.000  
G28  22521204.592   118349732.289       -3147.479          43.000    22521200.851    92220551.996       -2452.502          35.000  
E12  22914781.725   120417995.814         -48.273          44.000    22914778.894    92268318.284         -36.984          46.000  
E10  24129341.309   126800534.334        1167.063          42.000    24129342.474    97158862.361         894.281          45.000  
E33  23146790.608   121637202.862       -3047.929          46.000    23146788.429    93202527.539       -2335.489          44.000  
E19  22484200.310   118155259.490         439.721          41.000    22484198.187    90534547.673         336.573          42.000  
E02  27343745.914                       -1453.379          23.000    27343749.189   110101948.281       -1109.339          34.000  
G09                                                                  21568611.233    88319881.845        1811.719          30.000  
> 2024 06 26 15 01 03.9960000  0 14                     
G06  21672073.395   113887500.586        2046.025          42.000    21672072.084    88743519.683        1594.564          34.000  
G04  19273726.137   101284111.559         505.742          46.000    19273723.145    78922667.094         394.005          44.000  
G02  21901226.900   115091710.624       -4073.736          41.000                                                                  
G03  18877741.436    99203196.821       -1676.599          50.000    18877738.601    77301180.205       -1306.399          41.000  
G31  20844510.287   109538640.278       -1219.417          47.000    20844505.503    85355043.084        -950.462          38.000  
G19  21172170.398   111260499.775       -1605.704          42.000                                                                  
G17  21824391.564   114687949.718       -2948.359          43.000    21824388.450    89367215.369       -2297.564          34.000  
G28  22521803.581   118352880.049       -3148.150          43.000    22521799.880    92223004.819       -2453.217          35.000  
E12  22914790.932   120418044.266         -48.804          44.000    22914787.968    92268355.406         -37.240          46.000  
E10  24129119.186   126799367.367        1166.698          43.000    24129120.569    97157968.186         894.093          45.000  
E33  23147370.738   121640250.967       -3048.273          46.000    23147368.429    93204863.087       -2335.656          44.000  
E19  22484116.839   118154820.220         438.989          41.000    22484114.612    90534211.076         336.434          42.000  
E02  27344019.432                       -1453.958          24.000    27344024.772   110103058.002       -1109.825          34.000  
G09                                                                  21568168.282    88318068.945        1813.381          29.000  
> 2024 06 26 15 01 04.9960000  0 14                     
G06  21671683.972   113885454.308        2045.976          40.000    21671682.691    88741925.184        1594.154          34.000  
G04  19273629.888   101283606.083         505.188          46.000    19273626.969    78922273.226         393.653          44.000  
G02  21902002.117   115095784.595       -4074.060          41.000                                                                  
G03  18878060.579    99204873.620       -1677.013          50.000    18878057.652    77302486.812       -1306.895          41.000  
G31  20844742.479   109539859.997       -1220.274          47.000    20844737.670    85355993.520        -950.768          38.000  
G19  21172475.896   111262105.445       -1606.008          42.000                                                                  
G17  21824952.622   114690898.187       -2948.706          43.000    21824949.447    89369512.853       -2297.959          35.000  
G28  22522402.768   118356028.300       -3148.590          43.000    22522398.903    92225457.985       -2453.601          35.000  
E12  22914800.132   120418093.084         -49.136          44.000    22914797.592    92268392.814         -37.518          46.000  
E10  24128896.741   126798200.644        1166.536          42.000    24128898.404    97157074.211         893.797          45.000  
E33  23147950.983   121643299.386       -3048.730          46.000    23147948.434    93207198.890       -2336.105          44.000  
E19  22484033.509   118154381.264         438.748          41.000    22484030.998    90533874.746         336.044          41.000  
E02  27344294.746   143695238.6651      -1448.755          26.000    27344300.421   110104168.061       -1110.250          34.000  
G09                                                                  21567725.219    88316256.284        1812.956          27.000  
> 2024 06 26 15 01 05.9960000  0 14                     
G06  21671294.559   113883408.348        2045.876          40.000    21671293.353    88740330.890        1594.458          34.000  
G04  19273533.868   101283101.107         504.828          46.000    19273530.823    78921879.719         393.427          44.000  
G02  21902777.418   115099858.815       -4074.095          42.000                                                                  
G03  18878379.731    99206550.804       -1677.376          50.000    18878376.893    77303793.700       -1307.040          41.000  
G31  20844974.672   109541080.404       -1220.737          47.000    20844969.976    85356944.475        -951.136          38.000  
G19  21172781.504   111263711.738       -1606.455          42.000                                                                  
G17  21825513.802   114693847.014       -2949.002          44.000    21825510.571    89371810.636       -2298.065          35.000  
G28  22523001.947   118359177.030       -3148.615          43.000    22522998.045    92227911.554       -2453.943          35.000  
G09  21567269.050   113336763.0793       2326.348          35.000    21567282.352    88314443.921        1812.317          27.000  
E12  22914809.717   120418142.270         -49.290          44.000    22914806.869    92268430.510         -37.730          46.000  
E10  24128674.767   126797034.166        1166.309          42.000    24128676.235    97156180.418         893.701          45.000  
E33  23148531.257   121646348.086       -3048.784          47.000    23148528.585    93209534.894       -2335.976          44.000  
E19  22483950.087   118153942.578         438.689          41.000    22483947.444    90533538.612         336.019          41.000  
E02  27344570.040   143696687.757       -1449.067          26.000    27344576.233   110105278.422       -1110.390          34.000  
> 2024 06 26 15 01 06.9960000  0 14                     
G06  21670905.212   113881362.717        2045.635          40.000    21670904.090    88738736.867        1594.033          34.000  
G04  19273437.777   101282596.633         504.271          46.000    19273434.838    78921486.642         392.943          44.000  
G02  21903552.672   115103933.273       -4074.370          42.000                                                                  
G03  18878699.027    99208228.427       -1677.723          50.000    18878696.137    77305100.941       -1307.396          41.000  
G31  20845207.063   109542301.553       -1221.367          47.000    20845202.356    85357896.013        -951.778          38.000  
G19  21173087.213   111265318.781       -1607.234          42.000                                                                  
G17  21826075.002   114696796.287       -2949.330          44.000    21826071.811    89374108.809       -2298.281          35.000  
G28  22523601.229   118362326.307       -3149.438          43.000    22523597.269    92230365.524       -2454.047          35.000  
E12  22914819.079   120418191.899         -49.817          44.000    22914816.211    92268468.527         -37.919          46.000  
E10  24128453.021   126795867.968        1166.265          42.000    24128454.193    97155286.843         893.620          45.000  
E33  23149111.363   121649397.141       -3049.271          47.000    23149108.618    93211871.196       -2336.198          43.000  
E19  22483866.820   118153504.290         438.006          42.000    22483864.099    90533202.753         335.964          42.000  
E02  27344846.393   143698137.428       -1449.653          24.000    27344852.003   110106389.169       -1111.145          34.000  
G09                                                                  21566839.637    88312631.677        1812.262          28.000  
> 2024 06 26 15 01 07.9960000  0 14                     
G06  21670516.006   113879317.353        2045.046          42.000    21670514.823    88737143.068        1594.026          35.000  
G04  19273341.754   101282092.638         503.808          46.000    19273339.020    78921093.917         392.405          44.000  
G02  21904328.032   115108007.948       -4074.882          42.000                                                                  
G03  18879018.284    99209906.447       -1678.206          50.000    18879015.450    77306408.495       -1307.712          41.000  
G31  20845439.560   109543523.363       -1222.172          47.000    20845434.842    85358848.061        -952.037          38.000  
G19  21173393.149   111266926.428       -1607.785          42.000                                                                  
G17  21826636.318   114699745.978       -2949.772          44.000    21826633.078    89376407.250       -2298.835          35.000  
G28  22524200.637   118365476.019       -3150.092          43.000    22524196.592    92232819.859       -2454.504          35.000  
E12  22914828.692   120418241.854         -50.132          44.000    22914825.735    92268506.808         -38.400          46.000  
E10  24128231.068   126794701.986        1166.079          42.000    24128232.274    97154393.439         893.333          45.000  
E33  23149691.473   121652446.469       -3049.362          46.000    23149688.962    93214207.707       -2336.559          43.000  
E19  22483783.391   118153066.269         437.848          42.000    22483780.876    90532867.131         335.494          42.000  
E02  27345119.780   143699587.400       -1450.058          24.000    27345128.033   110107500.198       -1111.011          34.000  
G09                                                                  21566396.853    88310819.546        1812.033          28.000  
> 2024 06 26 15 01 08.9960000  0 14                     
G06  21670126.804   113877272.216        2044.907          42.000    21670125.661    88735549.455        1593.581          35.000  
G04  19273245.885   101281589.091         503.136          45.000    19273243.109    78920701.533         392.187          44.000  
G02  21905103.447   115112082.812       -4075.365          42.000                                                                  
G03  18879337.695    99211584.814       -1678.757          50.000    18879334.837    77307716.315       -1308.062          41.000  
G31  20845672.183   109544745.820       -1222.885          47.000    20845667.503    85359800.632        -952.828          38.000  
G19  21173699.186   111268534.752       -1609.014          42.000                                                                  
G17  21827197.605   114702696.007       -2950.559          44.000    21827194.382    89378705.937       -2298.709          35.000  
G28  22524800.199   118368626.213       -3150.610          43.000    22524795.964    92235274.564       -2454.871          35.000  
E12  22914838.053   120418292.142         -50.635          44.000    22914835.271    92268545.343         -38.777          46.000  
E10  24128008.977   126793536.250        1165.394          42.000    24128010.295    97153500.198         892.996          45.000  
E33  23150271.841   121655496.074       -3049.918          46.000    23150269.215    93216544.414       -2336.968          43.000  
E19  22483700.067   118152628.559         437.183          42.000    22483697.611    90532531.751         335.067          42.000  
E02  27345395.307   143701037.894       -1450.927          25.000    27345404.040   110108611.545       -1111.612          34.000  
G09                                                                  21565954.438    88309007.585        1811.607          27.000  
> 2024 06 26 15 01 09.9960000  0 14                     
G06  21669737.726   113875227.381        2044.659          42.000    21669736.597    88733956.096        1593.673          35.000  
G04  19273150.096   101281086.003         502.855          45.000    19273147.332    78920309.526         391.931          44.000  
G02  21905878.896   115116157.884       -4075.285          40.000                                                                  
G03  18879657.131    99213263.550       -1678.808          50.000    18879654.320    77309024.424       -1308.254          40.000  
G31  20845904.882   109545968.981       -1223.450          47.000    20845900.205    85360753.761        -953.356          37.000  
G19  21174005.365   111270143.687       -1609.069          42.000                                                                  
G17  21827759.000   114705646.427       -2950.562          43.000    21827755.825    89381004.987       -2298.910          35.000  
G28  22525399.707   118371776.878       -3150.775          42.000    22525395.396    92237729.636       -2455.457          35.000  
E12  22914847.652   120418342.785         -50.686          44.000    22914844.878    92268584.147         -38.802          46.000  
E10  24127786.940   126792370.727        1165.553          42.000    24127788.668    97152607.143         892.957          45.000  
E33  23150852.313   121658545.975       -3049.859          46.000    23150849.711    93218881.341       -2336.921          43.000  
E19  22483616.890   118152191.113         437.407          42.000    22483614.422    90532196.569         334.977          42.000  
E02  27345671.354                       -1451.311          24.000    27345680.151   110109723.234       -1111.908          34.000  
G09                                                                  21565511.894    88307195.823        1812.400          27.000  
> 2024 06 26 15 01 10.9960000  0 14                     
G06  21669348.651   113873182.884        2043.841          41.000    21669347.457    88732362.976        1593.065          35.000  
G04  19273054.275   101280583.452         502.257          46.000    19273051.678    78919917.929         391.337          45.000  
G02  21906654.520   115120233.246       -4075.485          41.000                                                                  
G03  18879976.541    99214942.759       -1679.325          50.000    18879973.935    77310332.902       -1308.800          40.000  
G31  20846137.837   109547192.875       -1224.172          47.000    20846133.167    85361707.442        -954.107          37.000  
G19  21174311.657   111271753.344       -1609.956          42.000                                                                  
G17  21828320.677   114708597.277       -2951.019          43.000    21828317.324    89383304.348       -2299.091          34.000  
G28  22525999.378   118374928.082       -3151.440          43.000    22525995.009    92240185.088       -2455.878          36.000  
E12  22914857.386   120418393.857         -51.308          44.000    22914854.551    92268623.275         -39.264          46.000  
E10  24127565.315   126791205.521        1164.911          42.000    24127566.873    97151714.310         892.668          45.000  
E33  23151432.314   121661596.216       -3050.567          46.000    23151430.038    93221218.549       -2337.414          43.000  
E19  22483533.794   118151754.032         436.672          41.000    22483531.383    90531861.640         334.929          42.000  
E02  27345945.978                       -1451.183          24.000    27345956.335   110110835.258       -1112.237          34.000  
G09                                                                  21565069.444    88305384.264        1811.200          27.000  
> 2024 06 26 15 01 11.9960000  0 14                     
G06  21668959.633   113871138.679        2043.907          41.000    21668958.460    88730770.088        1592.441          34.000  
G04  19272958.783   101280081.392         501.632          45.000    19272956.073    78919526.705         391.082          44.000  
G02  21907430.035   115124308.826       -4075.630          41.000                                                                  
G03  18880296.143    99216622.344       -1679.763          50.000    18880293.525    77311641.668       -1308.898          40.000  
G31  20846370.814   109548417.466       -1224.957          47.000    20846366.338    85362661.664        -954.491          38.000  
G19  21174618.148   111273363.670       -1610.737          42.000                                                                  
G17  21828882.278   114711548.552       -2951.883          43.000    21828878.866    89385604.031       -2299.563          34.000  
G28  22526599.089   118378079.755       -3152.032          43.000    22526594.679    92242640.912       -2456.134          35.000  
E12  22914867.086   120418445.287         -51.556          43.000    22914864.397    92268662.685         -39.563          46.000  
E10  24127343.842   126790040.530        1164.874          42.000    24127345.224    97150821.659         892.658          45.000  
E33  23152012.787   121664646.773       -3050.703          46.000    23152010.549    93223555.982       -2337.686          43.000  
E19  22483450.716   118151317.241         436.581          41.000    22483448.228    90531526.953         334.648          42.000  
E02  27346225.258   143705382.7731      -1451.537          26.000    27346232.693   110111947.658       -1112.945          34.000  
G09                                                                  21564626.959    88303572.889        1811.162          26.000  
> 2024 06 26 15 01 12.9960000  0 14                     
G06  21668570.731   113869094.720        2044.054          41.000    21668569.500    88729177.406        1592.687          35.000  
G04  19272863.356   101279579.797         501.508          45.000    19272860.653    78919135.854         390.863          44.000  
G02  21908205.646   115128384.630       -4075.662          41.000                                                                  
G03  18880615.835    99218302.328       -1679.990          50.000    18880613.271    77312950.755       -1309.338          41.000  
G31  20846603.903   109549642.750       -1225.449          47.000    20846599.550    85363616.438        -955.103          38.000  
G19  21174924.761   111274974.644       -1611.295          42.000                                                                  
G17  21829443.898   114714500.205       -2951.744          43.000    21829440.407    89387903.998       -2299.692          34.000  
G28  22527198.859   118381231.886       -3152.295          42.000    22527194.528    92245097.149       -2456.775          36.000  
E12  22914876.746   120418497.081         -51.986          43.000    22914874.322    92268702.375         -39.865          46.000  
E10  24127122.357   126788875.790        1164.609          43.000    24127123.523    97149929.201         892.486          45.000  
E33  23152593.191   121667697.622       -3050.927          46.000    23152590.981    93225893.637       -2337.736          43.000  
E19  22483367.974   118150880.738         436.553          42.000    22483365.259    90531192.518         334.361          42.000  
E02  27346503.281   143706834.961       -1452.276          26.000    27346508.890   110113060.326       -1112.531          34.000  
G09                                                                  21564184.589    88301761.691        1811.220          27.000  
> 2024 06 26 15 01 13.9960000  0 14                     
G06  21668181.814   113867051.105        2043.485          41.000    21668180.606    88727584.988        1592.155          35.000  
G04  19272768.038   101279078.747         500.880          45.000    19272765.385    78918745.428         390.086          44.000  
G02  21908981.413   115132460.710       -4076.290          41.000                                                                  
G03  18880935.615    99219982.763       -1680.609          50.000    18880933.087    77314260.163       -1309.581          41.000  
G31  20846837.205   109550868.771       -1226.464          47.000    20846832.839    85364571.782        -955.949          37.000  
G19  21175231.444   111276586.323       -1611.998          42.000                                                                  
G17  21830005.741   114717452.303       -2952.188          41.000    21830002.095    89390204.403       -2301.005          34.000  
G28  22527798.803   118384384.584       -3152.936          43.000    22527794.411    92247553.763       -2456.366          35.000  
E12  22914886.857   120418549.294         -52.454          43.000    22914884.139    92268742.394         -40.239          46.000  
E10  24126901.416   126787711.349        1164.100          43.000    24126901.960    97149036.965         892.101          45.000  
E33  23153173.918   121670748.831       -3051.485          46.000    23153171.704    93228231.584       -2338.010          44.000  
E19  22483285.120   118150444.597         435.992          42.000    22483282.336    90530858.327         334.034          43.000  
E02  27346775.204   143708287.571       -1452.758          27.000    27346785.287   110114173.381       -1112.867          34.000  
G09                                                                  21563742.317    88299950.703        1811.064          26.000  
> 2024 06 26 15 01 14.9960000  0 14                     
G06  21667792.944   113865007.795        2043.137          40.000    21667791.854    88725992.834        1591.491          35.000  
G04  19272672.806   101278578.163         500.513          45.000    19272670.087    78918355.362         389.960          44.000  
G02  21909757.070   115136536.951       -4076.194          39.000                                                                  
G03  18881255.473    99221663.592       -1681.028          50.000    18881252.928    77315569.907       -1309.745          41.000  
G31  20847070.601   109552095.490       -1226.910          47.000    20847066.282    85365527.650        -955.848          37.000  
G19  21175538.333   111278198.662       -1612.405          42.000                                                                  
G17  21830567.432   114720404.824       -2952.389          41.000    21830563.980    89392505.038       -2300.750          34.000  
G28  22528398.796   118387537.756       -3153.491          43.000    22528394.409    92250010.774       -2456.927          35.000  
E12  22914896.965   120418601.867         -52.721          43.000    22914893.911    92268782.663         -40.165          46.000  
E10  24126680.044   126786547.116        1164.218          43.000    24126680.329    97148144.913         892.094          45.000  
E33  23153754.673   121673800.338       -3051.600          46.000    23153752.738    93230569.756       -2338.191          45.000  
E19  22483202.497   118150008.769         435.899          42.000    22483199.494    90530524.394         333.821          43.000  
E02  27347050.035   143709740.665       -1453.475          27.000    27347061.768   110115286.769       -1113.337          34.000  
G09                                                                  21563299.603                1       1810.884          26.000  
> 2024 06 26 15 01 15.9960000  0 14                     
G06  21667404.172   113862964.798        2042.781          40.000    21667403.089    88724400.890        1591.227          35.000  
G04  19272577.650   101278078.093         499.762          46.000    19272574.937    78917965.688         389.483          45.000  
G02  21910532.747   115140613.447       -4076.408          41.000                                                                  
G03  18881575.397    99223344.814       -1681.421          50.000    18881572.878    77316879.958       -1310.247          41.000  
G31  20847304.139   109553322.901       -1227.811          46.000    20847299.780    85366484.079        -956.766          37.000  
G19  21175845.283   111279811.713       -1613.704          41.000                                                                  
G17  21831129.294   114723357.731       -2953.075          42.000    21831125.890    89394806.006       -2301.321          34.000  
G28  22528999.015   118390691.421       -3154.077          43.000    22528994.522    92252468.209       -2457.605          35.000  
E12  22914907.158   120418654.836         -53.115          43.000    22914904.243    92268823.260         -40.896          46.000  
E10  24126458.422   126785383.193        1163.617          43.000    24126458.799    97147253.066         891.445          45.000  
E33  23154335.651   121676852.155       -3052.145          46.000    23154333.957    93232908.142       -2338.587          45.000  
E19  22483119.436   118149573.260         435.437          42.000    22483116.288    90530190.694         333.498          42.000  
E02  27347325.931   143711194.145       -1453.923          27.000    27347338.451   110116400.487       -1113.843          34.000  
G09                                                                  21562858.204                        1811.190          26.000  
> 2024 06 26 15 01 16.9960000  0 14                     
G06  21667015.486   113860922.133        2042.686          42.000    21667014.453    88722809.174        1591.405          35.000  
G04  19272482.570   101277578.521         499.333          46.000    19272479.884    78917576.427         389.172          45.000  
G02  21911308.544   115144690.296       -4076.873          41.000                                                                  
G03  18881895.385    99225026.499       -1681.965          50.000    18881892.910    77318190.354       -1310.623          41.000  
G31  20847537.822   109554551.051       -1228.517          46.000    20847533.434    85367441.098        -957.319          37.000  
G19  21176152.338   111281425.403       -1613.969          42.000                                                                  
G17  21831691.358   114726311.079       -2953.610          42.000    21831687.801    89397107.277       -2301.186          35.000  
G28  22529599.183   118393845.608       -3154.394          43.000    22529594.756    92254925.987       -2457.684          35.000  
E12  22914917.569   120418708.200         -53.429          43.000    22914914.281    92268864.143         -41.045          46.000  
E10  24126237.318   126784219.519        1163.565          43.000    24126237.509    97146361.424         891.611          45.000  
E33  23154916.299   121679904.299       -3052.255          46.000    23154914.618    93235246.812       -2338.784          45.000  
E19  22483036.624   118149138.089         434.950          42.000    22483033.517    90529857.237         333.379          42.000  
E02  27347606.713   143712648.107       -1453.923          28.000    27347615.396   110117514.581       -1114.273          34.000  
G09                                                                  21562415.659                        1810.541          26.000  
> 2024 06 26 15 01 17.9960000  0 14                     
G06  21666626.811   113858879.841        2042.037          41.000    21666625.836    88721217.735        1591.470          35.000  
G04  19272387.601   101277079.542         498.446          45.000    19272384.993    78917187.604         388.592          44.000  
G02  21912084.438   115148767.458       -4077.568          41.000                                                                  
G03  18882215.444    99226708.637       -1682.618          50.000    18882212.988    77319501.105       -1310.860          41.000  
G31  20847771.691   109555779.984       -1229.413          46.000    20847767.332    85368398.705        -957.943          37.000  
G19  21176459.659   111283039.863       -1615.109          42.000                                                                  
G17  21832253.402   114729264.897       -2954.198          42.000    21832249.838    89399408.964       -2301.595          34.000  
G28  22530199.556   118397000.377       -3155.139          43.000    22530195.099    92257384.262       -2458.807          35.000  
E12  22914927.409   120418762.020         -54.180          43.000    22914924.395    92268905.386         -41.532          46.000  
E10  24126016.036   126783056.187        1163.000          43.000    24126016.062    97145470.039         891.110          45.000  
E33  23155496.811   121682956.842       -3052.748          46.000    23155495.356    93237585.768       -2339.230          45.000  
E19  22482953.646   118148703.309         434.482          42.000    22482950.691    90529524.101         332.995          42.000  
E02  27347888.375   143714102.598       -1454.641          29.000    27347892.285   110118629.056       -1114.836          34.000  
G09                                                                  21561973.064                        1809.807          26.000  
> 2024 06 26 15 01 18.9960000  0 14                     
G06  21666238.338   113856837.779        2041.755          41.000    21666237.291    88719626.525        1591.003          35.000  
G04  19272292.749   101276580.987         498.242          45.000    19272290.134    78916799.123         388.325          44.000  
G02  21912860.316   115152844.774       -4077.316          41.000                                                                  
G03  18882535.614    99228391.151       -1682.940          50.000    18882533.110    77320812.171       -1311.538          41.000  
G31  20848005.761   109557009.564       -1229.970          46.000    20848001.434    85369356.814        -958.423          37.000  
G19  21176766.997   111284654.959       -1615.583          42.000                                                                  
G17  21832815.445   114732219.087       -2954.456          42.000    21832811.983    89401710.930       -2302.257          34.000  
G28  22530800.084   118400155.574       -3155.457          43.000    22530795.447    92259842.843       -2458.575          35.000  
E12  22914937.512   120418816.166         -54.548          43.000    22914934.880    92268946.878         -41.739          46.000  
E10  24125794.944   126781893.055        1162.975          43.000    24125794.736    97144578.805         891.173          45.000  
E33  23156076.927   121686009.644       -3053.038          44.000    23156076.206    93239924.947       -2339.374          45.000  
E19  22482871.041   118148268.810         434.269          42.000    22482868.012    90529191.167         332.822          42.000  
E02  27348164.054   143715557.475       -1455.156          30.000    27348169.367   110119743.830       -1115.057          34.000  
G09                                                                  21561531.021                        1810.566          26.000  
> 2024 06 26 15 01 19.9960000  0 14                     
G06  21665849.805   113854796.108        2041.547          41.000    21665848.700    88718035.630        1590.964          35.000  
G04  19272197.912   101276083.012         497.525          45.000    19272195.404    78916411.100         387.638          44.000  
G02  21913636.328   115156922.467       -4078.026          42.000                                                                  
G03  18882855.937    99230074.148       -1683.266          50.000    18882853.362    77322123.588       -1311.657          41.000  
G31  20848239.852   109558239.925       -1230.881          46.000    20848235.574    85370315.533        -958.689          37.000  
G19  21177074.537   111286270.815       -1616.138          42.000                                                                  
G17  21833377.691   114735173.764       -2955.199          40.000    21833374.166    89404013.316       -2303.384          34.000  
G28  22531400.563   118403311.379       -3156.177          43.000    22531395.980    92262301.921       -2459.314          35.000  
E12  22914947.751   120418870.789         -54.885          43.000    22914945.151    92268988.732         -42.114          46.000  
E10  24125573.770   126780730.266        1162.580          43.000    24125573.383    97143687.841         890.895          45.000  
E33  23156657.916   121689062.871       -3053.508          45.000    23156657.276    93242264.407       -2339.647          45.000  
E19  22482788.780   118147834.687         433.838          43.000    22482785.427    90528858.532         332.604          42.000  
E02  27348443.477   143717012.890       -1455.173          30.000    27348446.436   110120859.015       -1115.384          34.000  
G09                                                                  21561089.197                        1808.712          25.000  
> 2024 06 26 15 01 20.9960000  0 14                     
G06  21665461.299   113852754.830        2041.092          40.000    21665460.241    88716445.004        1591.167          35.000  
G04  19272103.330   101275585.597         497.326          45.000    19272100.737    78916023.506         387.370          44.000  
G02  21914412.311   115161000.414       -4078.114          40.000                                                                  
G03  18883176.258    99231757.626       -1683.666          49.000    18883173.666    77323435.408       -1311.960          41.000  
G31  20848474.183   109559471.081       -1231.488          46.000    20848469.869    85371274.877        -959.662          37.000  
G19  21177382.141   111287887.392       -1616.856          42.000                                                                  
G17  21833939.877   114738128.911       -2955.148          41.000    21833936.543    89406316.030       -2303.125          35.000  
G28  22532001.129   118406467.722       -3156.665          43.000    22531996.647    92264761.421       -2459.851          35.000  
E12  22914958.171   120418925.842         -54.927          43.000    22914955.675    92269030.916         -42.272          46.000  
E10  24125352.842   126779567.801        1162.534          44.000    24125352.302    97142797.126         890.750          45.000  
E33  23157239.389   121692116.455       -3053.691          45.000    23157238.329    93244604.167       -2339.885          45.000  
E19  22482706.309   118147400.973         433.465          43.000    22482702.802    90528526.226         332.000          42.000  
E02  27348716.845   143718468.812       -1456.510          30.000    27348723.412   110121974.587       -1115.931          34.000  
G09                                                                  21560647.462                        1809.049          24.000  
> 2024 06 26 15 01 21.9960000  0 14                     
G06  21665072.924   113850713.809        2040.660          40.000    21665071.893    88714854.616        1590.260          35.000  
G04  19272008.772   101275088.674         496.631          46.000    19272006.067    78915636.294         386.876          44.000  
G02  21915188.371   115165078.614       -4078.375          40.000                                                                  
G03  18883496.574    99233441.493       -1684.182          50.000    18883494.025    77324747.519       -1312.429          41.000  
G31  20848708.673   109560702.905       -1232.116          47.000    20848704.315    85372234.735        -960.004          37.000  
G19  21177689.923   111289504.636       -1617.583          42.000                                                                  
G17  21834502.224   114741084.460       -2955.656          41.000    21834499.044    89408619.056       -2303.073          35.000  
G28  22532601.663   118409624.540       -3157.190          43.000    22532597.391    92267221.290       -2460.083          35.000  
E12  22914968.542   120418981.287         -55.826          43.000    22914966.265    92269073.391         -42.700          46.000  
E10  24125131.611   126778405.590        1161.991          44.000    24125131.053    97141906.602         890.307          45.000  
E33  23157820.923   121695170.352       -3054.286          46.000    23157819.427    93246944.161       -2340.289          45.000  
E19  22482623.730   118146967.550         433.365          43.000    22482620.315    90528194.124         331.935          42.000  
E02  27348996.986   143719925.136       -1456.714          30.000    27349000.555   110123090.473       -1116.385          33.000  
G09                                                                  21560205.844                        1809.058          25.000  
> 2024 06 26 15 01 22.9960000  0 14                     
G06  21664684.607   113848672.979        2040.201          40.000    21664683.492    88713264.396        1589.676          35.000  
G04  19271914.331   101274592.143         496.302          46.000    19271911.529    78915249.391         386.694          44.000  
G02  21915964.601   115169156.931       -4078.475          40.000                                                                  
G03  18883817.061    99235125.682       -1684.537          50.000    18883814.588    77326059.864       -1312.726          41.000  
G31  20848943.247   109561935.338       -1232.875          47.000    20848938.816    85373195.055        -960.257          38.000  
G19  21177997.806   111291122.460       -1618.249          42.000                                                                  
G17  21835064.740   114744040.337       -2956.171          41.000    21835061.586    89410922.322       -2303.551          34.000  
G28  22533202.445   118412781.775       -3157.672          43.000    22533198.209    92269681.464       -2460.529          35.000  
E12  22914979.298   120419037.007         -56.022          43.000    22914976.735    92269116.091         -42.952          46.000  
E10  24124910.262   126777243.533        1161.689          44.000    24124910.191    97141016.192         890.200          45.000  
E33  23158402.343   121698224.450       -3054.300          45.000    23158400.401    93249284.319       -2340.375          44.000  
E19  22482541.360   118146534.363         432.787          43.000    22482537.907    90527862.198         331.581          42.000  
E02  27349278.336   143721381.769       -1456.989          31.000    27349277.659   110124206.634       -1116.793          33.000  
G09                                                                  21559764.530                        1809.514          25.000  
> 2024 06 26 15 01 23.9960000  0 14                     
G06  21664296.176   113846632.537        2040.267          41.000    21664295.174    88711674.429        1589.939          35.000  
G04  19271819.856   101274096.185         495.684          45.000    19271817.146    78914862.919         386.223          44.000  
G02  21916740.757   115173235.570       -4078.829          39.000                                                                  
G03  18884137.629    99236810.341       -1684.974          49.000    18884135.161    77327372.581       -1313.113          41.000  
G31  20849177.981   109563168.533       -1233.564          47.000    20849173.384    85374155.996        -961.274          38.000  
G19  21178305.796   111292741.026       -1619.158          41.000                                                                  
G17  21835627.223   114746996.670       -2956.500          42.000    21835624.098    89413225.934       -2303.767          34.000  
G28  22533803.250   118415939.565       -3158.264          43.000    22533799.088    92272142.065       -2460.864          35.000  
E12  22914989.845   120419093.157         -56.209          43.000    22914987.519    92269159.114         -43.111          46.000  
E10  24124689.166   126776081.789        1161.598          44.000    24124689.219    97140126.031         889.920          45.000  
G09  21559331.114                        2317.883          31.000    21559324.066    88281827.2991       1809.027          26.000  
E33  23158983.099   121701278.933       -3054.742          45.000    23158981.560    93251624.768       -2340.520          44.000  
E19  22482458.906   118146101.565         432.651          43.000    22482455.471    90527530.569         331.355          42.000  
E02  27349555.737   143722838.925       -1457.167          31.000    27349554.909   110125323.149       -1116.709          33.000  
> 2024 06 26 15 01 24.9960000  0 14                     
G06  21663907.876   113844592.413        2039.782          41.000    21663906.890    88710084.730        1589.553          36.000  
G04  19271725.547   101273600.712         495.250          46.000    19271722.843    78914476.840         385.746          44.000  
G02  21917516.919   115177314.396       -4078.957          39.000                                                                  
G03  18884458.160    99238495.402       -1685.180          49.000    18884455.795    77328685.616       -1313.205          41.000  
G31  20849412.784   109564402.451       -1234.296          47.000    20849408.244    85375117.476        -961.945          38.000  
G19  21178614.003   111294360.260       -1619.565          42.000                                                                  
G17  21836189.803   114749953.398       -2956.272          40.000    21836186.838    89415529.908       -2304.875          34.000  
G28  22534404.313   118419097.862       -3158.582          44.000    22534400.104    92274603.078       -2461.389          36.000  
E12  22915000.524   120419149.702         -56.603          43.000    22914998.301    92269202.441         -43.397          46.000  
E10  24124468.394   126774920.312        1161.261          44.000    24124468.233    97139236.061         889.939          45.000  
G09  21558877.528   113292665.9573       2319.912          31.000    21558881.908    88280018.409        1808.617          26.000  
E33  23159564.257   121704333.716       -3054.965          45.000    23159562.647    93253965.444       -2340.798          44.000  
E19  22482376.494   118145669.075         432.232          43.000    22482373.301    90527199.170         331.212          42.000  
E02  27349830.266   143724296.580       -1458.182          30.000    27349832.011   110126439.989       -1116.519          32.000  
> 2024 06 26 15 01 25.9960000  0 14                     
G06  21663519.722   113842552.608        2039.822          41.000    21663518.760    88708495.290        1589.402          36.000  
G04  19271631.339   101273105.756         494.715          46.000    19271628.665    78914091.164         385.344          44.000  
G02  21918293.229   115181393.585       -4079.186          39.000                                                                  
G03  18884778.841    99240180.914       -1685.830          49.000    18884776.582    77329999.007       -1313.736          41.000  
G31  20849647.834   109565637.101       -1235.121          46.000    20849643.214    85376079.537        -962.423          38.000  
G19  21178922.344   111295980.175       -1620.437          43.000                                                                  
G17  21836752.456   114752910.611       -2957.489          41.000    21836749.544    89417834.164       -2304.461          34.000  
G28  22535005.407   118422256.682       -3159.015          44.000    22535001.240    92277064.481       -2461.890          36.000  
E12  22915011.419   120419206.674         -57.333          42.000    22915009.085    92269246.090         -43.774          46.000  
E10  24124247.774   126773759.125        1161.123          45.000    24124247.248    97138346.324         889.619          45.000  
G09  21558436.728   113290344.8322       2320.803          31.000    21558440.028    88278209.731        1808.486          26.000  
E33  23160145.369   121707388.872       -3055.251          45.000    23160144.032    93256306.406       -2341.177          44.000  
E19  22482294.080   118145236.918         431.875          43.000    22482291.150    90526868.040         330.891          42.000  
E02  27350106.842   143725754.690       -1457.825          30.000    27350109.336   110127557.298       -1117.938          32.000  
> 2024 06 26 15 01 26.9960000  0 14                     
G06  21663131.431   113840513.094        2039.440          41.000    21663130.660    88706906.069        1589.291          36.000  
G04  19271537.273   101272611.306         494.169          46.000    19271534.471    78913705.880         385.039          44.000  
G02  21919069.562   115185472.955       -4079.281          38.000                                                                  
G03  18885099.601    99241866.810       -1686.162          49.000    18885097.411    77331312.685       -1313.826          41.000  
G31  20849882.966   109566872.427       -1235.683          46.000    20849878.387    85377042.143        -962.939          38.000  
G19  21179230.799   111297600.766       -1620.819          43.000                                                                  
G17  21837315.199   114755868.184       -2957.860          42.000    21837312.403    89420138.783       -2304.865          34.000  
G28  22535606.681   118425415.991       -3159.674          44.000    22535602.423    92279526.290       -2462.231          36.000  
E12  22915022.123   120419264.011         -57.781          43.000    22915019.852    92269290.029         -44.206          46.000  
E10  24124026.957   126772598.194        1160.693          44.000    24124026.456    97137456.786         889.296          46.000  
G09  21557997.084   113288023.8082       2322.691          32.000    21557998.173                        1807.559          24.000  
E33  23160726.628   121710444.332       -3055.622          45.000    23160725.139    93258647.617       -2341.511          43.000  
E19  22482211.979   118144805.085         431.879          42.000    22482208.889    90526537.175         330.585          42.000  
E02  27350383.471   143727213.211       -1458.636          31.000    27350386.946   110128674.862       -1117.637          32.000  
> 2024 06 26 15 01 27.9960000  0 14                     
G06  21662743.284   113838473.892        2039.118          40.000    21662742.730    88705317.101        1588.507          36.000  
G04  19271443.228   101272117.331         493.798          46.000    19271440.481    78913320.956         384.776          44.000  
G02  21919845.895   115189552.609       -4079.909          38.000                                                                  
G03  18885420.462    99243553.123       -1686.511          49.000    18885418.366    77332626.699       -1314.145          41.000  
G31  20850118.128   109568108.474       -1236.218          46.000    20850113.676    85378005.305        -963.575          38.000  
G19  21179539.430   111299222.058       -1621.617          43.000                                                                  
G17  21837878.028   114758826.193       -2958.149          41.000    21837875.349    89422443.760       -2305.263          34.000  
G28  22536208.062   118428575.789       -3159.985          44.000    22536203.726    92281988.484       -2462.427          37.000  
E12  22915033.398   120419321.718         -57.899          43.000    22915030.587    92269334.253         -44.439          46.000  
E10  24123806.670   126771437.519        1160.661          45.000    24123805.309    97136567.428         889.188          46.000  
G09  21557554.214   113285703.1642       2321.309          31.000    21557556.554                        1809.617          23.000  
E33  23161308.013   121713500.104       -3055.921          44.000    23161306.662    93260989.036       -2341.458          43.000  
E19  22482129.907   118144373.582         431.415          42.000    22482126.753    90526206.517         330.684          42.000  
E02  27350660.735   143728672.190       -1459.368          31.000    27350664.548   110129792.769       -1118.232          32.000  
> 2024 06 26 15 01 28.9960000  0 14                     
G06  21662355.344   113836434.963        2038.772          40.000    21662354.787    88703728.287        1588.544          36.000  
G04  19271349.396   101271623.822         493.114          46.000    19271346.677    78912936.402         384.233          44.000  
G02  21920622.187   115193632.406       -4079.978          36.000                                                                  
G03  18885741.356    99245239.805       -1687.192          50.000    18885739.246    77333940.990       -1314.533          41.000  
G31  20850353.505   109569345.181       -1237.191          46.000    20850348.989    85378968.978        -963.993          38.000  
G19  21179848.146   111300843.962       -1622.684          42.000                                                                  
G17  21838440.881   114761784.587       -2959.016          43.000    21838438.338    89424748.965       -2305.565          35.000  
G28  22536809.624   118431736.053       -3160.669          44.000    22536805.186    92284450.979       -2462.561          37.000  
E12  22915044.439   120419379.778         -58.479          43.000    22915041.618    92269378.737         -44.784          46.000  
E10  24123585.714   126770277.040        1160.182          45.000    24123584.627    97135678.241         889.040          46.000  
E33  23161889.557   121716556.127       -3056.314          44.000    23161888.292    93263330.667       -2341.963          44.000  
E19  22482047.927   118143942.337         430.976          43.000    22482044.722    90525876.092         330.097          42.000  
E02  27350938.384   143730131.497       -1459.245          31.000    27350942.133   110130910.966       -1118.216          32.000  
G09                                                                  21557115.890                        1800.674          23.000  
> 2024 06 26 15 01 29.9960000  0 14                     
G06  21661967.331   113834396.333        2038.710          41.000    21661966.826    88702139.745        1588.205          36.000  
G04  19271255.550   101271130.817         492.668          46.000    19271252.791    78912552.246         383.892          44.000  
G02  21921398.442   115197712.493       -4080.491          36.000                                                                  
G03  18886062.453    99246926.916       -1687.393          50.000    18886060.393    77335255.621       -1314.802          41.000  
G31  20850589.061   109570582.618       -1237.927          46.000    20850584.544    85379933.181        -964.139          38.000  
G19  21180156.963   111302466.541       -1622.991          42.000                                                                  
G17  21839003.896   114764743.407       -2959.271          42.000    21839001.387    89427054.519       -2305.853          35.000  
G28  22537411.205   118434896.802       -3161.096          44.000    22537406.716    92286913.942       -2463.232          37.000  
E12  22915055.362   120419438.231         -58.844          43.000    22915052.828    92269423.530         -45.043          46.000  
E10  24123364.831   126769116.856        1159.876          45.000    24123363.770    97134789.269         888.714          46.000  
E33  23162471.384   121719612.503       -3056.662          45.000    23162470.015    93265672.543       -2342.220          44.000  
E19  22481965.963   118143511.448         430.580          43.000    22481962.918    90525545.920         329.975          42.000  
E02  27351216.709   143731591.387       -1460.635          31.000    27351219.900   110132029.570       -1119.290          32.000  
G09                                                                  21556675.482                        1808.548          22.000  
> 2024 06 26 15 01 30.9960000  0 14                     
G06  21661579.427   113832358.172        2038.529          41.000    21661579.067    88700551.589        1587.697          36.000  
G04  19271161.806   101270638.470         492.132          46.000    19271159.081    78912168.594         383.396          44.000  
G02  21922174.953   115201793.003       -4080.523          39.000                                                                  
G03  18886383.597    99248614.583       -1687.819          50.000    18886381.549    77336570.699       -1315.095          41.000  
G31  20850824.734   109571820.927       -1238.665          46.000    20850820.237    85380898.089        -965.561          38.000  
G19  21180465.953   111304089.975       -1623.854          42.000                                                                  
G17  21839567.072   114767702.752       -2959.407          43.000    21839564.572    89429360.532       -2306.514          35.000  
G28  22538012.795   118438058.218       -3161.639          44.000    22538008.404    92289377.393       -2464.062          37.000  
E12  22915066.504   120419497.218         -58.950          42.000    22915063.972    92269468.724         -45.196          46.000  
E10  24123144.137   126767957.090        1159.677          44.000    24123143.182    97133900.609         888.527          46.000  
E33  23163053.067   121722669.337       -3056.950          45.000    23163052.067    93268014.800       -2342.167          44.000  
E19  22481884.161   118143081.051         430.363          43.000    22481881.013    90525216.136         329.899          42.000  
E02  27351494.046   143733051.811       -1460.706          30.000    27351497.915   110133148.620       -1119.718          32.000  
G09                                                                  21556234.649                        1804.764          23.000  
> 2024 06 26 15 01 31.9960000  0 14                     
G06  21661191.553   113830320.192        2037.510          41.000    21661191.161    88698963.538        1587.432          36.000  
G04  19271068.239   101270146.479         491.784          46.000    19271065.384    78911785.225         383.302          43.000  
G02  21922951.493   115205873.616       -4080.807          40.000                                                                  
G03  18886704.845    99250302.548       -1688.223          50.000    18886702.817    77337885.998       -1315.617          42.000  
G31  20851060.388   109573059.754       -1239.188          47.000    20851056.046    85381863.440        -965.797          38.000  
G19  21180774.949   111305713.943       -1624.347          42.000                                                                  
G17  21840130.354   114770662.393       -2959.714          43.000    21840127.756    89431666.717       -2306.075          35.000  
G28  22538614.471   118441219.990       -3161.981          44.000    22538610.194    92291841.133       -2463.940          36.000  
E12  22915077.764   120419556.467         -59.572          42.000    22915075.194    92269514.116         -45.538          46.000  
E10  24122923.459   126766797.438        1159.476          44.000    24122922.522    97133012.048         888.465          46.000  
E33  23163635.058   121725726.341       -3057.120          45.000    23163633.703    93270357.196       -2342.582          44.000  
E19  22481802.505   118142650.785         430.052          43.000    22481799.129    90524886.468         329.573          42.000  
E02  27351769.660   143734512.554       -1461.178          30.000    27351775.840   110134267.849       -1119.396          32.000  
G09                                                                  21555794.432                        1807.694          23.000  
> 2024 06 26 15 01 32.9960000  0 14                     
G06  21660803.892   113828282.513        2037.298          40.000    21660803.448    88697375.721        1587.585          36.000  
G04  19270974.710   101269654.986         491.186          46.000    19270971.813    78911402.241         382.788          43.000  
G02  21923728.078   115209954.440       -4080.740          39.000                                                                  
G03  18887026.179    99251990.892       -1688.697          50.000    18887024.149    77339201.580       -1315.943          42.000  
G31  20851296.240   109574299.319       -1239.978          47.000    20851292.000    85382829.331        -966.157          38.000  
G19  21181084.143   111307338.564       -1624.986          42.000                                                                  
G17  21840693.733   114773622.432       -2960.386          43.000    21840691.089    89433973.236       -2306.586          35.000  
G28  22539216.122   118444382.249       -3162.421          44.000    22539211.890    92294305.224       -2464.392          36.000  
E12  22915088.866   120419616.050         -59.653          42.000    22915086.595    92269559.796         -45.892          46.000  
E10  24122702.754   126765638.030        1159.168          44.000    24122701.920    97132123.667         888.255          46.000  
G09  21555360.816                        2312.988          33.000    21555354.211                        1807.646          23.000  
E33  23164216.803   121728783.670       -3057.608          46.000    23164215.589    93272699.809       -2342.797          44.000  
E19  22481720.642   118142220.852         429.790          43.000    22481717.198    90524557.049         329.258          42.000  
E02  27352047.170   143735973.732       -1461.393          30.000    27352053.791   110135387.465       -1120.078          32.000  
> 2024 06 26 15 01 33.9960000  0 14                     
G06  21660416.239   113826245.091        2036.980          40.000    21660415.823    88695788.124        1587.943          36.000  
G04  19270881.306   101269163.985         490.932          46.000    19270878.292    78911019.643         382.383          44.000  
G02  21924504.707   115214035.584       -4080.967          36.000                                                                  
G03  18887347.682    99253679.662       -1689.041          50.000    18887345.493    77340517.502       -1315.903          41.000  
G31  20851532.338   109575539.586       -1240.549          47.000    20851528.025    85383795.801        -967.076          37.000  
G19  21181393.353   111308963.884       -1625.816          44.000                                                                  
G17  21841257.185   114776582.872       -2960.623          42.000    21841254.591    89436280.090       -2306.778          35.000  
G28  22539817.898   118447545.038       -3162.982          44.000    22539813.791    92296769.731       -2464.795          36.000  
E12  22915100.341   120419676.077         -60.288          43.000    22915097.998    92269605.778         -46.112          46.000  
E10  24122482.352   126764478.897        1159.140          44.000    24122481.460    97131235.518         887.991          46.000  
E33  23164798.769   121731841.333       -3057.759          45.000    23164797.335    93275042.680       -2343.001          44.000  
E19  22481638.892   118141791.252         429.576          43.000    22481635.284    90524227.863         329.195          42.000  
E02  27352325.299   143737435.317       -1461.489          30.000    27352331.739   110136507.375       -1119.445          32.000  
G09                                                                  21554912.926                        1807.902          23.000  
> 2024 06 26 15 01 34.9960000  0 14                     
G06  21660028.600   113824208.115        2036.510          40.000    21660028.210    88694200.879        1587.393          36.000  
G04  19270787.945   101268673.594         489.852          46.000    19270784.994    78910637.507         381.920          44.000  
G02  21925281.425   115218117.042       -4081.949          37.000                                                                  
G03  18887669.259    99255368.928       -1689.624          50.000    18887666.932    77341833.816       -1316.770          41.000  
G31  20851768.521   109576780.664       -1241.566          47.000    20851764.225    85384762.844        -967.491          37.000  
G19  21181702.893   111310589.982       -1626.617          43.000                                                                  
G17  21841820.669   114779543.870       -2961.422          42.000    21841818.052    89438587.320       -2307.109          36.000  
G28  22540419.974   118450708.417       -3163.861          44.000    22540415.781    92299234.664       -2464.911          36.000  
E12  22915112.038   120419736.568         -60.880          43.000    22915109.535    92269652.118         -46.607          46.000  
E10  24122261.937   126763320.120        1158.572          45.000    24122260.962    97130347.618         887.762          46.000  
E33  23165380.605   121734899.392       -3058.392          45.000    23165379.246    93277385.874       -2343.439          44.000  
E19  22481557.264   118141362.073         428.919          43.000    22481553.696    90523898.998         328.727          42.000  
E02  27352603.837   143738897.495       -1462.247          30.000    27352609.996   110137627.729       -1120.254          32.000  
G09                                                                  21554472.323                        1807.213          23.000  
> 2024 06 26 15 01 35.9960000  0 14                     
G06  21659640.970   113822171.527        2036.407          41.000    21659640.648    88692613.939        1586.850          35.000  
G04  19270694.695   101268183.778         489.666          45.000    19270691.594    78910255.848         381.536          44.000  
G02  21926058.255   115222198.792       -4081.638          39.000                                                                  
G03  18887990.893    99257058.713       -1689.851          51.000    18887988.459    77343150.516       -1316.838          41.000  
G31  20852004.912   109578022.533       -1242.068          48.000    20852000.480    85385730.540        -967.977          37.000  
G19  21182012.548   111312216.834       -1627.367          43.000                                                                  
G17  21842384.364   114782505.329       -2961.540          43.000    21842381.709    89440894.977       -2307.425          35.000  
G28  22541021.942   118453872.373       -3164.154          44.000    22541017.916    92301700.100       -2465.259          36.000  
E12  22915123.742   120419797.515         -60.904          43.000    22915121.025    92269698.828         -46.584          46.000  
E10  24122041.022   126762161.708        1158.321          44.000    24122040.470    97129460.005         887.596          46.000  
E33  23165962.376   121737957.862       -3058.534          45.000    23165961.277    93279729.372       -2343.527          44.000  
E19  22481475.809   118140933.304         428.666          43.000    22481472.108    90523570.474         328.564          42.000  
E02  27352882.060   143740360.171       -1462.489          30.000    27352888.443   110138748.516       -1121.069          32.000  
G09                                                                  21554031.928                        1808.938          22.000  
> 2024 06 26 15 01 36.9960000  0 14                     
G06  21659253.505   113820135.211        2036.230          41.000    21659253.077    88691027.241        1586.428          35.000  
G04  19270601.542   101267694.448         489.055          45.000    19270598.433    78909874.548         380.973          44.000  
G02  21926835.010   115226280.737       -4082.115          37.000                                                                  
G03  18888312.558    99258748.874       -1690.388          50.000    18888310.069    77344467.527       -1317.196          41.000  
G31  20852241.271   109579265.095       -1242.845          47.000    20852236.830    85386698.760        -968.407          37.000  
G19  21182322.254   111313844.309       -1627.855          43.000                                                                  
G17  21842948.118   114785467.191       -2962.312          42.000    21842945.389    89443202.911       -2308.048          36.000  
G28  22541624.123   118457036.824       -3164.655          44.000    22541620.033    92304165.871       -2465.283          36.000  
E12  22915135.459   120419858.836         -61.298          43.000    22915132.696    92269745.823         -47.212          45.000  
E10  24121820.618   126761003.521        1158.085          44.000    24121820.210    97128572.569         887.326          46.000  
E33  23166544.443   121741016.618       -3058.777          45.000    23166543.365    93282073.098       -2343.893          44.000  
E19  22481394.073   118140504.836         428.230          43.000    22481390.462    90523242.160         328.180          42.000  
E02  27353160.021   143741823.334       -1463.429          30.000    27353166.779   110139869.606       -1121.709          32.000  
G09                                                                  21553591.511                        1807.270          22.000  
> 2024 06 26 15 01 37.9960000  0 14                     
G06  21658866.065   113818099.226        2036.111          41.000    21658865.652    88689440.717        1586.359          35.000  
G04  19270508.603   101267205.607         488.598          45.000    19270505.450    78909493.629         380.799          43.000  
G02  21927611.812   115230362.932       -4082.045          37.000                                                                  
G03  18888634.241    99260439.452       -1690.673          50.000    18888631.956    77345784.869       -1317.491          41.000  
G31  20852477.854   109580508.344       -1243.538          47.000    20852473.411    85387667.521        -968.788          37.000  
G19  21182632.057   111315472.485       -1628.536          43.000                                                                  
G17  21843511.839   114788429.457       -2962.308          41.000    21843509.098    89445511.167       -2308.124          35.000  
G28  22542226.476   118460201.736       -3164.959          43.000    22542222.322    92306632.087       -2466.010          36.000  
E12  22915147.196   120419920.539         -61.844          43.000    22915144.411    92269793.105         -47.489          45.000  
E10  24121600.429   126759845.592        1157.855          44.000    24121599.952    97127685.331         887.246          46.000  
G09  21553148.970   113262561.3781       2318.611          32.000    21553150.330                        1807.125          23.000  
E33  23167126.475   121744075.713       -3059.204          45.000    23167125.515    93284417.078       -2344.157          44.000  
E19  22481312.543   118140076.687         428.028          43.000    22481308.992    90522914.112         327.930          42.000  
E02  27353438.640   143743286.871       -1463.729          30.000    27353445.355   110140991.067       -1122.176          32.000  
> 2024 06 26 15 01 38.9960000  0 14                     
G06  21658478.713   113816063.589        2035.338          40.000    21658478.193    88687854.529        1585.950          35.000  
G04  19270415.728   101266717.344         487.753          45.000    19270412.468    78909113.165         380.026          44.000  
G02  21928388.728   115234445.450       -4082.723          37.000                                                                  
G03  18888956.040    99262130.502       -1691.385          50.000    18888953.745    77347102.571       -1317.939          41.000  
G31  20852714.614   109581752.363       -1244.475          47.000    20852710.181    85388636.922        -970.134          37.000  
G19  21182941.905   111317101.376       -1629.431          43.000                                                                  
G17  21844075.694   114791392.222       -2963.153          42.000    21844072.895    89447819.810       -2308.536          35.000  
G28  22542828.799   118463367.251       -3165.918          43.000    22542824.758    92309098.724       -2466.785          36.000  
E12  22915159.046   120419982.709         -62.610          43.000    22915156.318    92269840.731         -47.888          45.000  
E10  24121380.091   126758687.999        1157.224          44.000    24121379.687    97126798.347         886.810          46.000  
G09  21552707.285   113260243.534        2317.937          32.000    21552708.071                        1805.150          24.000  
E33  23167708.724   121747135.176       -3059.760          45.000    23167707.658    93286761.336       -2344.452          44.000  
E19  22481231.214   118139648.955         427.313          43.000    22481227.719    90522586.367         327.489          42.000  
E02  27353717.218   143744750.930       -1464.097          30.000    27353723.815   110142112.830       -1121.936          32.000  
> 2024 06 26 15 01 39.9960000  0 14                     
G06  21658091.312   113814028.241        2035.424          40.000    21658090.826    88686268.560        1585.671          35.000  
G04  19270322.853   101266229.544         487.554          45.000    19270319.710    78908733.043         380.054          43.000  
G02  21929165.667   115238528.167       -4082.690          37.000                                                                  
G03  18889277.851    99263821.942       -1691.609          50.000    18889275.584    77348420.573       -1318.322          41.000  
G31  20852951.357   109582997.060       -1244.967          47.000    20852947.078    85389606.778        -969.905          37.000  
G19  21183252.087   111318730.953       -1629.752          42.000                                                                  
G17  21844639.626   114794355.352       -2963.255          42.000    21844636.840    89450128.732       -2308.541          36.000  
G28  22543431.268   118466533.225       -3166.107          44.000    22543427.285    92311565.714       -2467.145          36.000  
E12  22915170.885   120420045.220         -62.736          43.000    22915168.282    92269888.638         -48.062          45.000  
E10  24121159.326   126757530.629        1157.284          44.000    24121159.392    97125911.538         886.866          46.000  
E33  23168290.754   121750194.922       -3059.801          45.000    23168289.938    93289105.824       -2344.584          44.000  
E19  22481149.657   118139221.464         427.480          43.000    22481146.301    90522258.815         327.589          42.000  
E02  27353996.619   143746215.401       -1464.435          31.000    27354002.340   110143234.959       -1122.085          33.000  
G09                                                                  21552267.009                        1805.561          24.000  
> 2024 06 26 15 01 40.9960000  0 14                     
G06  21657703.981   113811993.157        2034.884          41.000    21657703.585    88684682.746        1586.236          35.000  
G04  19270230.117   101265742.159         487.016          45.000    19270226.967    78908353.268         379.731          43.000  
G02  21929942.697   115242611.078       -4083.035          38.000                                                                  
G03  18889599.773    99265513.728       -1692.063          50.000    18889597.470    77349738.831       -1318.348          41.000  
G31  20853188.224   109584242.405       -1245.781          47.000    20853184.065    85390577.191        -970.640          37.000  
G19  21183562.221   111320361.093       -1630.223          42.000                                                                  
G17  21845203.647   114797318.838       -2963.997          42.000    21845200.822    89452437.937       -2309.008          36.000  
G28  22544033.885   118469699.620       -3166.705          43.000    22544029.730    92314033.000       -2467.316          36.000  
E12  22915182.917   120420108.049         -62.955          43.000    22915180.170    92269936.784         -48.394          46.000  
E10  24120939.074   126756373.458        1157.087          45.000    24120939.162    97125024.886         886.413          46.000  
E33  23168873.031   121753254.922       -3060.265          45.000    23168872.243    93291450.502       -2344.900          44.000  
E19  22481068.500   118138794.270         426.973          43.000    22481064.936    90521931.480         327.092          42.000  
E02  27354275.156   143747680.292       -1465.812          30.000    27354280.961   110144357.387       -1122.885          33.000  
G09                                                                  21551826.301                        1805.429          24.000  
> 2024 06 26 15 01 41.9960000  0 14                     
G06  21657316.783   113809958.319        2034.722          41.000    21657316.365    88683097.205        1585.283          35.000  
G04  19270137.516   101265255.248         486.805          45.000    19270134.189    78907973.869         379.155          43.000  
G02  21930719.816   115246694.236       -4083.346          38.000                                                                  
G03  18889921.723    99267205.881       -1692.209          50.000    18889919.407    77351057.406       -1318.722          41.000  
G31  20853425.351   109585488.421       -1246.341          47.000    20853421.140    85391548.120        -971.306          37.000  
G19  21183872.501   111321991.914       -1631.240          42.000                                                                  
G17  21845767.544   114800282.693       -2964.278          42.000    21845764.861    89454747.430       -2309.113          36.000  
G28  22544636.516   118472866.474       -3167.078          43.000    22544632.337    92316500.705       -2467.657          36.000  
E12  22915194.963   120420171.244         -63.346          43.000    22915192.235    92269985.189         -48.495          45.000  
E10  24120719.155   126755216.519        1156.850          45.000    24120719.086    97124138.400         886.305          46.000  
E33  23169455.787   121756315.208       -3060.540          45.000    23169454.762    93293795.392       -2344.978          44.000  
E19  22480987.323   118138367.351         426.814          43.000    22480983.597    90521604.359         326.935          42.000  
E02  27354552.542   143749145.563       -1465.503          29.000    27354559.807   110145480.115       -1123.197          33.000  
G09                                                                  21551385.304                        1806.467          24.000  
> 2024 06 26 15 01 42.9960000  0 14                     
G06  21656929.656   113807923.790        2034.275          41.000    21656929.236    88681511.840        1584.923          35.000  
G04  19270044.937   101264768.815         486.028          44.000    19270041.513    78907594.833         378.623          43.000  
G02  21931496.836   115250777.605       -4083.800          39.000                                                                  
G03  18890243.798    99268898.430       -1692.860          50.000    18890241.488    77352376.259       -1318.806          41.000  
G31  20853662.590   109586735.116       -1247.239          47.000    20853658.288    85392519.573        -971.959          37.000  
G19  21184182.828   111323623.378       -1631.938          43.000                                                                  
G17  21846331.651   114803246.918       -2964.542          42.000    21846328.910    89457057.241       -2309.857          36.000  
G28  22545239.208   118476033.815       -3167.633          43.000    22545235.112    92318968.778       -2468.481          36.000  
E12  22915207.130   120420234.782         -63.889          43.000    22915204.418    92270033.881         -49.048          45.000  
E10  24120498.991   126754059.824        1156.286          45.000    24120498.927    97123252.097         886.019          46.000  
G09  21550945.596   113250982.2531       2316.711          33.000    21550944.228                        1806.894          24.000  
E33  23170037.965   121759375.789       -3060.990          45.000    23170037.112    93296140.511       -2345.403          44.000  
E19  22480905.831   118137940.677         426.272          43.000    22480902.456    90521277.430         326.624          42.000  
E02  27354830.730   143750611.201       -1465.336          30.000    27354838.815   110146603.133       -1122.584          33.000  
> 2024 06 26 15 01 43.9960000  0 14                     
G06  21656542.447   113805889.645        2034.022          41.000    21656542.178    88679926.801        1584.659          35.000  
G04  19269952.497   101264282.968         485.546          44.000    19269949.025    78907216.251         378.128          43.000  
G02  21932274.052   115254861.297       -4084.177          40.000                                                                  
G03  18890565.867    99270591.473       -1693.435          50.000    18890563.610    77353695.519       -1319.368          41.000  
G31  20853899.965   109587982.607       -1248.048          46.000    20853895.640    85393491.634        -972.240          37.000  
G19  21184493.424   111325255.615       -1632.797          43.000                                                                  
G17  21846895.770   114806211.654       -2964.899          42.000    21846893.127    89459367.456       -2310.160          36.000  
G28  22545842.116   118479201.746       -3168.292          43.000    22545837.965    92321437.258       -2468.695          36.000  
E12  22915219.670   120420298.791         -64.425          43.000    22915216.610    92270082.919         -49.298          46.000  
E10  24120278.719   126752903.462        1156.081          45.000    24120278.811    97122366.056         885.856          46.000  
G09  21550504.918   113248665.573        2316.456          33.000    21550502.133                        1806.172          24.000  
E33  23170620.455   121762436.769       -3061.188          45.000    23170619.644    93298485.943       -2345.681          44.000  
E19  22480824.374   118137514.446         425.836          43.000    22480821.234    90520950.848         326.141          42.000  
E02  27355109.923   143752077.449       -1466.638          30.000    27355117.780   110147726.632       -1123.651          32.000  
> 2024 06 26 15 01 44.9960000  0 14                     
G06  21656155.361   113803855.847        2033.969          42.000    21656155.112    88678342.008        1584.639          35.000  
G04  19269860.123   101263797.664         485.108          44.000    19269856.652    78906838.088         377.855          43.000  
G02  21933051.364   115258945.247       -4084.027          40.000                                                                  
G03  18890888.066    99272284.976       -1693.788          50.000    18890885.982    77355015.134       -1319.771          41.000  
G31  20854137.468   109589230.839       -1248.551          46.000    20854133.235    85394464.275        -972.744          37.000  
G19  21184804.133   111326888.552       -1632.980          42.000                                                                  
G17  21847459.907   114809176.852       -2965.620          42.000    21847457.432    89461678.016       -2310.839          35.000  
G28  22546445.007   118482370.186       -3168.652          43.000    22546440.944    92323906.188       -2469.128          36.000  
E12  22915231.726   120420363.229         -64.612          43.000    22915228.965    92270132.307         -49.533          46.000  
E10  24120058.741   126751747.419        1155.876          45.000    24120058.809    97121480.258         885.693          46.000  
G09  21550064.322   113246349.211        2316.269          34.000    21550060.025                        1804.808          24.000  
E33  23171203.340   121765498.129       -3061.635          45.000    23171202.141    93300831.638       -2345.802          44.000  
E19  22480743.312   118137088.582         425.567          43.000    22480740.223    90520624.523         326.166          42.000  
E02  27355388.748   143753544.160       -1467.143          30.000    27355396.882   110148850.455       -1124.071          32.000  
> 2024 06 26 15 01 45.9960000  0 14                     
G06  21655768.396   113801822.449        2033.201          42.000    21655768.158    88676757.549        1584.224          35.000  
G04  19269767.849   101263312.951         484.417          44.000    19269764.401    78906460.391         377.495          43.000  
G02  21933828.511   115263029.547       -4084.270          40.000                                                                  
G03  18891210.469    99273978.969       -1694.222          50.000    18891208.416    77356335.134       -1320.335          41.000  
G31  20854375.099   109590479.879       -1249.358          46.000    20854370.812    85395437.574        -973.555          37.000  
G19  21185114.957   111328522.290       -1634.097          42.000                                                                  
G17  21848024.238   114812142.559       -2965.868          42.000    21848021.862    89463988.940       -2311.364          35.000  
G28  22547048.016   118485539.238       -3169.275          43.000    22547044.011    92326375.584       -2469.690          36.000  
E12  22915243.798   120420428.151         -65.167          43.000    22915241.300    92270182.050         -49.890          46.000  
E10  24119838.651   126750591.731        1155.365          45.000    24119838.854    97120594.731         885.385          46.000  
G09  21549623.508   113244033.148        2315.549          34.000    21549618.120                        1803.451          25.000  
E33  23171786.151   121768559.881       -3061.873          45.000    23171784.670    93303177.662       -2346.323          44.000  
E19  22480662.454   118136663.120         425.253          43.000    22480659.166    90520298.526         325.842          42.000  
E02  27355667.816   143755011.340       -1467.333          30.000    27355676.113   110149974.664       -1123.831          32.000  
> 2024 06 26 15 01 46.9960000  0 14                     
G06  21655381.539   113799789.329        2032.928          41.000    21655381.213    88675173.317        1583.617          35.000  
G04  19269675.646   101262828.711         483.855          44.000    19269672.234    78906083.067         376.970          43.000  
G02  21934605.880   115267114.037       -4084.624          40.000                                                                  
G03  18891532.981    99275673.372       -1694.903          50.000    18891530.824    77357655.437       -1320.690          41.000  
G31  20854612.845   109591729.598       -1250.282          46.000    20854608.658    85396411.413        -974.537          37.000  
G19  21185425.927   111330156.642       -1634.686          42.000                                                                  
G17  21848588.717   114815108.669       -2966.433          41.000    21848586.421    89466300.167       -2311.434          35.000  
G28  22547651.109   118488708.769       -3169.995          42.000    22547647.213    92328845.327       -2470.111          36.000  
E12  22915256.210   120420493.435         -65.529          43.000    22915253.598    92270232.075         -50.390          46.000  
E10  24119618.512   126749436.273        1155.203          44.000    24119618.985    97119709.388         885.134          46.000  
G09  21549182.777   113241717.305        2315.455          33.000    21549176.352                        1804.546          25.000  
E33  23172368.728   121771621.925       -3062.316          45.000    23172367.447    93305523.905       -2346.603          44.000  
E19  22480581.334   118136237.940         424.984          43.000    22480578.307    90519972.754         325.524          42.000  
E02  27355946.635   143756479.009       -1467.786          30.000    27355955.101   110151099.257       -1124.545          32.000  
> 2024 06 26 15 01 47.9960000  0 14                     
G06  21654994.769   113797756.595        2032.650          41.000    21654994.521    88673589.360        1584.025          36.000  
G04  19269583.453   101262345.041         483.441          44.000    19269580.221    78905706.179         376.869          43.000  
G02  21935383.139   115271198.869       -4084.948          40.000                                                                  
G03  18891855.573    99277368.247       -1694.937          50.000    18891853.413    77358976.119       -1320.801          41.000  
G31  20854850.829   109592980.118       -1250.941          46.000    20854846.548    85397385.825        -974.701          36.000  
G19  21185737.031   111331791.761       -1635.324          42.000                                                                  
G17  21849153.315   114818075.227       -2966.910          41.000    21849151.025    89468611.761       -2311.408          35.000  
G28  22548254.194   118491878.865       -3170.349          42.000    22548250.459    92331315.561       -2470.587          36.000  
E12  22915268.630   120420559.166         -65.905          43.000    22915266.182    92270282.447         -50.615          46.000  
E10  24119398.712   126748281.149        1155.006          44.000    24119399.208    97118824.309         884.917          46.000  
G09  21548742.107   113239401.747        2315.768          33.000    21548733.317                        1804.759          24.000  
E33  23172951.766   121774684.364       -3062.685          45.000    23172950.223    93307870.437       -2346.653          44.000  
E19  22480500.452   118135813.177         424.450          43.000    22480497.627    90519647.280         325.321          42.000  
E02  27356225.812   143757947.216       -1468.579          30.000    27356234.441   110152224.236       -1124.949          32.000  
> 2024 06 26 15 01 48.9960000  0 14                     
G06  21654608.048   113795724.168        2032.129          41.000    21654607.799    88672005.666        1583.229          35.000  
G04  19269491.426   101261861.861         482.786          44.000    19269488.329    78905329.677         376.244          43.000  
G02  21936160.488   115275283.928       -4085.531          37.000                                                                  
G03  18892178.314    99279063.523       -1695.721          50.000    18892176.125    77360297.116       -1321.323          41.000  
G31  20855088.812   109594231.320       -1251.648          46.000    20855084.665    85398360.777        -975.342          36.000  
G19  21186048.224   111333427.532       -1636.053          42.000                                                                  
G17  21849717.846   114821042.198       -2967.495          41.000    21849715.650    89470923.698       -2311.332          35.000  
G28  22548857.444   118495049.444       -3170.923          42.000    22548853.768    92333786.121       -2470.941          36.000  
E12  22915280.988   120420625.266         -66.304          43.000    22915278.587    92270333.110         -50.971          45.000  
E10  24119179.095   126747126.287        1154.554          45.000    24119179.356    97117939.408         884.680          46.000  
G09  21548301.387   113237086.365        2315.827          32.000    21548293.479                        1804.128          24.000  
E33  23173534.372   121777747.109       -3063.063          45.000    23173533.096    93310217.223       -2347.120          44.000  
E19  22480419.852   118135388.730         424.125          43.000    22480416.990    90519322.043         325.190          42.000  
E02  27356505.453   143759415.831       -1468.699          30.000    27356513.922   110153349.565       -1126.139          32.000  
> 2024 06 26 15 01 49.9960000  0 14                     
G06  21654221.313   113793692.077        2031.868          41.000    21654221.107    88670422.208        1582.787          35.000  
G04  19269399.544   101261379.211         482.230          45.000    19269396.469    78904953.592         375.982          43.000  
G02  21936938.024   115279369.233       -4085.109          37.000                                                                  
G03  18892500.987    99280759.252       -1695.980          50.000    18892498.815    77361618.451       -1321.444          41.000  
G31  20855327.020   109595483.261       -1252.410          46.000    20855322.838    85399336.324        -975.760          37.000  
G19  21186359.569   111335064.032       -1636.964          42.000                                                                  
G17  21850282.484   114824009.614       -2967.673          42.000    21850280.309    89473235.975       -2312.584          35.000  
G28  22549460.896   118498220.566       -3171.466          42.000    22549457.295    92336257.100       -2471.069          36.000  
E12  22915293.631   120420691.811         -66.793          43.000    22915291.349    92270384.089         -51.080          45.000  
E10  24118959.398   126745971.715        1154.421          45.000    24118959.659    97117054.741         884.461          46.000  
G09  21547861.012   113234771.368        2315.385          32.000    21547853.185                        1804.078          23.000  
E33  23174117.143   121780810.219       -3063.433          45.000    23174116.017    93312564.263       -2347.199          44.000  
E19  22480338.997   118134964.624         424.003          43.000    22480336.314    90518997.100         324.759          42.000  
E02  27356785.248   143760884.924       -1469.353          31.000    27356793.746   110154475.191       -1125.423          33.000  
> 2024 06 26 15 01 50.9960000  0 14                     
G06  21653834.752   113791660.256        2031.573          41.000    21653834.458    88668838.947        1583.324          35.000  
G04  19269307.753   101260897.006         481.864          45.000    19269304.733    78904577.853         375.565          43.000  
G02  21937715.355   115283454.774       -4085.302          36.000                                                                  
G03  18892823.770    99282455.326       -1696.342          50.000    18892821.607    77362940.083       -1321.824          41.000  
G31  20855565.334   109596735.852       -1252.949          47.000    20855561.179    85400312.370        -976.327          37.000  
G19  21186671.060   111336701.119       -1637.452          43.000                                                                  
G17  21850847.325   114826977.383       -2967.855          42.000    21850845.055    89475548.527       -2312.898          35.000  
G28  22550064.408   118501392.119       -3171.582          42.000    22550060.887    92338728.458       -2472.119          36.000  
E12  22915306.605   120420758.687         -66.966          43.000    22915304.048    92270435.327         -51.202          45.000  
E10  24118739.693   126744817.344        1154.300          44.000    24118740.123    97116170.228         884.497          46.000  
G09  21547420.457   113232456.599        2314.761          33.000    21547413.634                        1804.135          21.000  
E33  23174700.162   121783873.558       -3063.437          45.000    23174698.990    93314911.504       -2347.300          44.000  
E19  22480258.352   118134540.801         423.798          43.000    22480255.621    90518672.353         324.763          42.000  
E02  27357064.533   143762354.388       -1469.582          30.000    27357073.584   110155601.167       -1126.131          33.000  
> 2024 06 26 15 01 51.9960000  0 14                     
G06  21653448.173   113789628.734        2031.488          41.000    21653447.882    88667255.956        1582.801          35.000  
G04  19269216.057   101260415.341         481.451          45.000    19269213.094    78904202.530         375.146          43.000  
G02  21938492.847   115287540.597       -4086.157          35.000                                                                  
G03  18893146.547    99284151.847       -1696.636          50.000    18893144.463    77364262.069       -1322.442          41.000  
G31  20855803.857   109597989.190       -1253.750          47.000    20855799.614    85401288.987        -976.711          37.000  
G19  21186982.568   111338338.935       -1638.133          42.000                                                                  
G17  21851412.228   114829945.611       -2968.317          42.000    21851409.982    89477861.413       -2312.737          35.000  
G28  22550668.079   118504564.206       -3172.058          42.000    22550664.567    92341200.190       -2471.771          37.000  
E12  22915319.567   120420825.973         -67.273          43.000    22915316.736    92270486.896         -51.694          45.000  
E10  24118520.153   126743663.281        1154.005          45.000    24118520.616    97115285.955         884.209          46.000  
G09  21546979.918   113230141.978        2314.716          33.000    21546972.123                        1799.707          20.000  
E33  23175282.858   121786937.258       -3063.794          45.000    23175282.014    93317259.016       -2347.531          44.000  
E19  22480177.610   118134117.352         423.457          43.000    22480174.913    90518347.898         324.412          42.000  
E02  27357344.183   143763824.355       -1469.917          30.000    27357353.351   110156727.512       -1126.757          34.000  
> 2024 06 26 15 01 52.9960000  0 14                     
G06  21653061.646   113787597.487        2031.302          41.000    21653061.488    88665673.172        1583.110          35.000  
G04  19269124.566   101259934.108         480.943          45.000    19269121.532    78903827.543         374.760          43.000  
G02  21939270.431   115291626.586       -4086.019          36.000                                                                  
G03  18893469.377    99285848.732       -1697.116          50.000    18893467.361    77365584.283       -1322.114          41.000  
G31  20856042.396   109599243.172       -1254.375          47.000    20856038.246    85402266.122        -976.796          37.000  
G19  21187294.314   111339977.381       -1638.928          42.000                                                                  
G17  21851977.203   114832914.183       -2968.930          42.000    21851974.906    89480174.578       -2313.245          35.000  
G28  22551271.825   118507736.744       -3172.784          43.000    22551268.352    92343672.309       -2472.375          36.000  
E12  22915332.587   120420893.592         -67.874          43.000    22915329.588    92270538.694         -51.856          45.000  
E10  24118300.595   126742509.415        1153.840          44.000    24118300.919    97114401.821         884.176          46.000  
G09  21546539.174   113227827.560        2314.956          32.000    21546530.968                        1807.531          20.000  
E33  23175865.723   121790001.234       -3064.073          45.000    23175865.052    93319606.732       -2347.874          44.000  
E19  22480097.210   118133694.135         422.956          43.000    22480094.453    90518023.608         324.213          42.000  
E02  27357624.475   143765294.693       -1470.744          30.000    27357633.125   110157854.141       -1126.683          34.000  
> 2024 06 26 15 01 53.9960000  0 14                     
G06  21652675.095   113785566.626        2030.911          41.000    21652675.059    88664090.678        1582.649          35.000  
G04  19269033.103   101259453.455         480.505          45.000    19269030.099    78903453.014         374.389          43.000  
G02  21940047.979   115295712.908       -4086.394          36.000                                                                  
G03  18893792.225    99287546.089       -1697.281          50.000    18893790.344    77366906.909       -1322.550          41.000  
G31  20856281.213   109600497.938       -1255.073          46.000    20856276.968    85403243.857        -977.786          37.000  
G19  21187606.375   111341616.555       -1639.256          43.000                                                                  
G17  21852542.234   114835883.227       -2969.028          42.000    21852539.895    89482488.125       -2313.663          35.000  
G28  22551875.678   118510909.846       -3173.193          43.000    22551872.228    92346144.845       -2472.742          37.000  
E12  22915345.566   120420961.652         -67.999          43.000    22915342.635    92270590.856         -52.159          45.000  
E10  24118081.024   126741355.878        1153.769          44.000    24118081.479    97113517.953         883.971          46.000  
G09  21546098.329   113225513.559        2314.131          32.000    21546091.120                        1808.519          21.000  
E33  23176449.059   121793065.590       -3064.388          45.000    23176448.181    93321954.737       -2348.016          44.000  
E19  22480016.732   118133271.327         422.740          43.000    22480013.917    90517699.638         324.022          42.000  
E02  27357905.509   143766765.535       -1470.698          31.000    27357913.092   110158981.154       -1126.801          34.000  
> 2024 06 26 15 01 54.9960000  0 14                     
G06  21652288.746   113783536.010        2030.334          41.000    21652288.661    88662508.367        1582.365          34.000  
G04  19268941.768   101258973.243         479.849          45.000    19268938.686    78903078.810         374.059          43.000  
G02  21940825.611   115299799.400       -4086.859          38.000                                                                  
G03  18894115.290    99289243.819       -1698.065          50.000    18894113.298    77368229.812       -1322.959          41.000  
G31  20856520.168   109601753.353       -1255.953          46.000    20856515.898    85404222.101        -978.433          37.000  
G19  21187918.422   111343256.360       -1640.340          42.000                                                                  
G17  21853107.286   114838852.642       -2969.660          42.000    21853104.848    89484801.942       -2314.018          34.000  
G28  22552479.519   118514083.363       -3173.627          43.000    22552476.134    92348617.720       -2472.919          37.000  
E12  22915358.499   120421030.066         -68.675          43.000    22915355.646    92270643.269         -52.515          45.000  
E10  24117861.638   126740202.577        1153.187          44.000    24117862.101    97112634.249         883.644          46.000  
G09  21545657.884   113223199.700        2313.615          33.000    21545652.577                        1807.104          23.000  
E33  23177032.840   121796130.212       -3064.953          45.000    23177031.343    93324302.948       -2348.327          44.000  
E19  22479936.270   118132848.770         422.359          43.000    22479933.604    90517375.867         323.679          42.000  
E02  27358186.601   143768236.812       -1471.807          31.000    27358193.074   110160108.467       -1126.873          34.000  
> 2024 06 26 15 01 55.9960000  0 14                     
G06  21651902.436   113781505.775        2030.009          42.000    21651902.294    88660926.362        1581.947          34.000  
G04  19268850.567   101258493.599         479.351          46.000    19268847.396    78902705.066         373.498          43.000  
G02  21941603.319   115303886.194       -4087.001          38.000                                                                  
G03  18894438.436    99290942.012       -1698.326          50.000    18894436.387    77369553.087       -1323.631          41.000  
G31  20856759.172   109603009.537       -1256.656          46.000    20856754.949    85405200.983        -979.658          37.000  
G19  21188230.621   111344896.909       -1640.878          42.000                                                                  
G17  21853672.412   114841822.524       -2970.183          42.000    21853670.076    89487116.131       -2314.241          35.000  
G28  22553083.539   118517257.471       -3174.463          43.000    22553080.182    92351091.058       -2473.511          37.000  
E12  22915371.497   120421098.915         -69.160          43.000    22915368.975    92270696.029         -52.977          45.000  
E10  24117642.505   126739049.576        1152.845          44.000    24117642.699    97111750.791         883.278          46.000  
G09  21545217.489   113220886.106        2313.596          34.000    21545213.029                        1804.580          22.000  
E33  23177616.042   121799195.208       -3065.198          45.000    23177614.603    93326651.462       -2348.652          44.000  
E19  22479855.984   118132426.595         421.922          43.000    22479853.314    90517052.383         323.258          42.000  
E02  27358467.776   143769708.548       -1472.022          31.000    27358473.225   110161236.208       -1128.350          34.000  
> 2024 06 26 15 01 56.9960000  0 14                     
G06  21651516.055   113779475.818        2029.741          41.000    21651515.901    88659344.620        1581.354          34.000  
G04  19268759.537   101258014.458         478.776          46.000    19268756.241    78902331.725         372.868          43.000  
G02  21942381.131   115307973.221       -4087.512          37.000                                                                  
G03  18894761.683    99292640.639       -1699.071          50.000    18894759.594    77370876.695       -1324.153          41.000  
G31  20856998.319   109604266.461       -1257.576          45.000    20856994.182    85406180.379        -980.162          37.000  
G19  21188542.919   111346538.145       -1641.689          42.000                                                                  
G17  21854237.722   114844792.831       -2970.721          43.000    21854235.294    89489430.673       -2314.908          35.000  
G28  22553687.765   118520432.095       -3175.128          44.000    22553684.352    92353564.772       -2474.207          37.000  
E12  22915384.490   120421168.180         -69.627          43.000    22915382.040    92270749.097         -53.363          45.000  
E10  24117423.332   126737896.873        1152.371          45.000    24117423.451    97110867.541         882.944          46.000  
G09  21544777.418   113218572.795        2312.927          35.000    21544772.891                        1798.482          23.000  
E33  23178199.359   121802260.533       -3065.636          45.000    23178197.853    93329000.210       -2349.058          44.000  
E19  22479775.807   118132004.781         421.451          43.000    22479772.910    90516729.167         322.872          42.000  
E02  27358748.555   143771180.764       -1473.238          31.000    27358753.441   110162364.246       -1128.231          34.000  
> 2024 06 26 15 01 57.9960000  0 14                     
G06  21651129.782   113777446.379        2028.901          41.000    21651129.741    88657763.244        1580.387          34.000  
G04  19268668.428   101257535.962         478.094          46.000    19268665.211    78901958.858         372.594          43.000  
G02  21943158.934   115312060.629       -4087.888          36.000                                                                  
G03  18895085.070    99294339.807       -1699.545          50.000    18895082.922    77372200.709       -1324.344          41.000  
G31  20857237.672   109605524.205       -1257.927          45.000    20857233.638    85407160.454        -980.960          37.000  
G19  21188855.422   111348180.199       -1642.781          42.000                                                                  
G17  21854803.083   114847763.699       -2971.192          43.000    21854800.456    89491745.626       -2315.320          35.000  
G28  22554292.020   118523607.350       -3175.726          44.000    22554288.721    92356038.992       -2474.243          36.000  
E12  22915397.805   120421237.962         -70.060          43.000    22915395.204    92270802.566         -53.672          45.000  
E10  24117203.981   126736744.572        1151.868          44.000    24117204.092    97109984.607         882.822          46.000  
G09  21544337.185   113216259.825        2312.895          33.000    21544334.396                        1798.173          24.000  
E33  23178782.762   121805326.314       -3066.119          45.000    23178781.249    93331349.312       -2349.229          44.000  
E19  22479695.762   118131583.420         421.228          43.000    22479692.874    90516406.321         322.531          42.000  
E02  27359030.230   143772653.523       -1473.178          32.000    27359033.856   110163492.766       -1128.925          34.000  
> 2024 06 26 15 01 58.9960000  0 14                     
G06  21650743.564   113775417.319        2028.801          41.000    21650743.624    88656182.151        1580.645          34.000  
G04  19268577.572   101257058.069         477.415          46.000    19268574.287    78901586.475         372.094          43.000  
G02  21943936.828   115316148.433       -4088.236          36.000                                                                  
G03  18895408.534    99296039.507       -1700.190          50.000    18895406.229    77373525.159       -1324.947          41.000  
G31  20857477.147   109606782.783       -1259.103          45.000    20857473.173    85408141.146        -981.146          37.000  
G19  21189168.021   111349823.020       -1643.218          42.000                                                                  
G17  21855368.565   114850735.097       -2971.953          43.000    21855365.960    89494061.020       -2316.028          35.000  
G28  22554896.359   118526783.195       -3176.331          43.000    22554893.151    92358513.703       -2474.957          37.000  
E12  22915411.363   120421308.235         -70.571          43.000    22915408.712    92270856.415         -54.150          45.000  
E10  24116984.634   126735592.623        1151.707          44.000    24116984.936    97109101.958         882.418          46.000  
G09  21543896.661   113213947.256        2311.541          33.000    21543894.346                        1799.487          24.000  
E33  23179366.382   121808392.525       -3066.453          45.000    23179364.848    93333698.753       -2349.731          44.000  
E19  22479615.392   118131162.464         420.822          43.000    22479612.818    90516083.766         322.321          42.000  
E02  27359312.449   143774126.873       -1474.171          32.000    27359314.253   110164621.678       -1129.110          34.000  
> 2024 06 26 15 01 59.9960000  0 14                     
G06  21650357.594   113773388.603        2028.475          42.000    21650357.561    88654601.298        1581.241          33.000  
G04  19268486.783   101256580.689         477.067          46.000    19268483.468    78901214.491         371.807          43.000  
G02  21944714.776   115320236.507       -4088.340          37.000                                                                  
G03  18895732.001    99297739.633       -1700.437          50.000    18895729.619    77374849.922       -1325.172          41.000  
G31  20857716.755   109608042.077       -1259.667          45.000    20857712.877    85409122.424        -981.281          37.000  
G19  21189480.824   111351466.562       -1644.133          41.000                                                                  
G17  21855934.140   114853706.905       -2972.176          43.000    21855931.495    89496376.702       -2316.029          34.000  
G28  22555500.734   118529959.552       -3176.654          43.000    22555497.667    92360988.772       -2475.311          36.000  
E12  22915425.042   120421378.916         -70.932          43.000    22915422.122    92270910.578         -54.412          45.000  
E10  24116765.734   126734440.977        1151.308          45.000    24116765.750    97108219.527         882.177          46.000  
G09  21543456.263   113211634.866        2312.123          33.000    21543455.163                        1799.832          24.000  
E33  23179949.947   121811459.058       -3066.764          45.000    23179948.318    93336048.448       -2349.926          44.000  
E19  22479535.297   118130741.878         420.436          43.000    22479532.591    90515761.494         322.160          42.000  
E02  27359593.949   143775600.680       -1473.422          32.000    27359594.662   110165750.953       -1129.241          35.000  
> 2024 06 26 15 02 00.9960000  0 14                     
G06  21649971.524   113771360.097        2028.561          42.000    21649971.547    88653020.683        1580.529          33.000  
G04  19268396.043   101256103.735         476.695          46.000    19268392.708    78900842.844         371.477          43.000  
G02  21945492.820   115324324.745       -4088.182          37.000                                                                  
G03  18896055.603    99299440.101       -1700.791          50.000    18896053.194    77376174.961       -1325.310          41.000  
G31  20857956.433   109609302.018       -1260.274          46.000    20857952.606    85410104.199        -981.927          37.000  
G19  21189793.622   111353110.663       -1644.405          41.000                                                                  
G17  21856499.668   114856679.040       -2972.280          43.000    21856497.003    89498692.666       -2316.158          34.000  
G28  22556105.312   118533136.377       -3177.221          43.000    22556102.213    92363464.210       -2475.537          36.000  
E12  22915438.492   120421449.900         -71.049          43.000    22915435.651    92270964.965         -54.538          45.000  
E10  24116546.272   126733289.499        1151.469          44.000    24116546.629    97107337.226         882.333          46.000  
G09  21543015.793   113209322.725        2311.885          33.000    21543015.661                        1802.229          24.000  
E33  23180533.606   121814525.852       -3066.917          46.000    23180531.832    93338398.311       -2349.918          44.000  
E19  22479455.337   118130321.538         420.295          43.000    22479452.564    90515439.422         321.917          42.000  
E02  27359875.346   143777074.889       -1474.497          32.000    27359875.252   110166880.514       -1129.502          35.000  
> 2024 06 26 15 02 01.9960000  0 14                     
G06  21649585.520   113769331.845        2028.170          42.000    21649585.625    88651440.241        1579.759          33.000  
G04  19268305.391   101255627.218         476.201          46.000    19268302.047    78900471.527         371.038          44.000  
G02  21946270.897   115328413.139       -4088.505          37.000                                                                  
G03  18896379.149    99301140.898       -1701.099          50.000    18896376.862    77377500.272       -1325.848          41.000  
G31  20858196.263   109610562.575       -1261.038          45.000    20858192.458    85411086.431        -982.319          37.000  
G19  21190106.616   111354755.391       -1645.289          41.000                                                                  
G17  21857065.392   114859651.520       -2972.715          43.000    21857062.665    89501008.864       -2316.376          34.000  
G28  22556709.918   118536313.585       -3177.563          43.000    22556706.788    92365939.960       -2476.215          36.000  
E12  22915452.185   120421521.216         -71.553          43.000    22915449.164    92271019.617         -54.999          45.000  
E10  24116327.269   126732138.236        1150.946          44.000    24116327.562    97106455.096         881.784          46.000  
G09  21542575.502   113207010.694        2312.014          33.000    21542576.818                        1801.479          26.000  
E33  23181117.192   121817592.886       -3067.376          46.000    23181115.492    93340748.378       -2350.293          44.000  
E19  22479375.170   118129901.456         419.766          43.000    22479372.622    90515117.539         321.718          42.000  
E02  27360156.635   143778549.451       -1475.624          32.000    27360155.779   110168010.374       -1129.963          35.000  
> 2024 06 26 15 02 02.9960000  0 14                     
G06  21649199.608   113767303.894        2027.655          42.000    21649199.723    88649860.027        1579.414          33.000  
G04  19268214.865   101255151.179         475.763          46.000    19268211.465    78900100.595         370.591          43.000  
G02  21947049.000   115332501.717       -4089.020          37.000                                                                  
G03  18896702.879    99302842.107       -1701.672          50.000    18896700.571    77378825.874       -1325.943          41.000  
G31  20858436.105   109611823.847       -1261.836          45.000    20858432.486    85412069.239        -982.809          37.000  
G19  21190419.782   111356400.809       -1645.838          40.000                                                                  
G17  21857631.151   114862624.434       -2973.273          43.000    21857628.394    89503325.390       -2316.402          34.000  
G28  22557314.785   118539491.267       -3178.009          43.000    22557311.467    92368416.081       -2476.270          37.000  
E12  22915466.107   120421592.899         -71.969          43.000    22915462.725    92271074.531         -55.109          45.000  
E10  24116108.449   126730987.208        1150.727          44.000    24116108.519    97105573.136         881.759          46.000  
G09  21542135.464   113204698.941        2311.255          33.000    21542136.761                        1802.005          26.000  
E33  23181700.844   121820660.208       -3067.670          46.000    23181699.168    93343098.679       -2350.672          44.000  
E19  22479295.451   118129481.660         419.515          43.000    22479292.701    90514795.885         321.316          42.000  
E02  27360437.912   143780024.431       -1475.531          32.000    27360436.512   110169140.553       -1130.388          35.000  
> 2024 06 26 15 02 03.9960000  0 14                     
G06  21648813.761   113765276.207        2027.461          42.000    21648813.870    88648279.992        1580.150          33.000  
G04  19268124.459   101254675.609         475.217          46.000    19268120.958    78899730.021         370.150          43.000  
G02  21947826.975   115336590.496       -4088.942          38.000                                                                  
G03  18897026.666    99304543.683       -1701.859          50.000    18897024.333    77380151.771       -1326.134          41.000  
G31  20858676.312   109613085.791       -1262.573          45.000    20858672.659    85413052.581        -983.562          37.000  
G19  21190732.984   111358046.834       -1646.336          40.000                                                                  
G17  21858197.017   114865597.690       -2973.747          43.000    21858194.204    89505642.221       -2316.532          34.000  
G28  22557919.703   118542669.455       -3178.711          43.000    22557916.365    92370892.562       -2476.569          36.000  
E12  22915479.843   120421664.928         -72.275          43.000    22915476.512    92271129.738         -55.528          45.000  
E10  24115889.368   126729836.406        1150.579          44.000    24115889.502    97104691.355         881.610          46.000  
G09  21541695.463   113202387.361        2311.721          35.000    21541694.825                        1800.762          24.000  
E33  23182284.198   121823727.827       -3067.781          45.000    23182282.921    93345449.178       -2350.611          44.000  
E19  22479215.764   118129062.151         419.392          43.000    22479212.858    90514474.443         321.371          42.000  
E02  27360718.985   143781499.787       -1475.901          32.000    27360717.485   110170271.041       -1130.727          35.000  
> 2024 06 26 15 02 04.9960000  0 14                     
G06  21648427.952   113763248.902        2027.338          42.000    21648428.102    88646700.255        1580.177          33.000  
G04  19268033.984   101254200.595         474.772          46.000    19268030.532    78899359.879         369.951          43.000  
G02  21948605.053   115340679.652       -4089.248          39.000                                                                  
G03  18897350.730    99306245.730       -1702.093          50.000    18897348.211    77381478.038       -1326.256          41.000  
G31  20858916.670   109614348.493       -1263.060          46.000    20858912.900    85414036.501        -984.320          37.000  
G19  21191046.354   111359693.611       -1647.112          41.000                                                                  
G17  21858762.786   114868571.412       -2974.055          43.000    21858760.098    89507959.415       -2317.329          34.000  
G28  22558524.608   118545848.155       -3178.809          43.000    22558521.298    92373369.479       -2477.362          36.000  
E12  22915493.667   120421737.408         -72.514          43.000    22915490.274    92271185.252         -55.437          45.000  
E10  24115670.499   126728685.930        1150.435          44.000    24115670.760    97103809.828         881.414          46.000  
G09  21541255.427   113200076.066        2311.724          34.000    21541253.190                        1803.830          23.000  
E33  23182868.110   121826795.815       -3068.026          46.000    23182866.674    93347799.973       -2350.920          44.000  
E19  22479136.295   118128643.027         419.176          43.000    22479133.136    90514153.291         321.317          42.000  
E02  27361000.118   143782975.724       -1476.682          33.000    27360998.357   110171401.918       -1130.962          35.000  
> 2024 06 26 15 02 05.9960000  0 14                     
G06  21648042.191   113761221.938        2026.862          42.000    21648042.446    88645120.832        1578.845          34.000  
G04  19267943.782   101253726.122         474.291          46.000    19267940.149    78898990.161         369.523          43.000  
G02  21949383.312   115344769.076       -4089.668          39.000                                                                  
G03  18897674.708    99307948.229       -1702.507          50.000    18897672.219    77382804.667       -1326.547          41.000  
G31  20859157.025   109615611.954       -1263.802          46.000    20859153.257    85415021.003        -984.526          37.000  
G19  21191359.960   111361341.102       -1647.811          41.000                                                                  
G17  21859328.778   114871545.575       -2974.155          42.000    21859326.021    89510276.932       -2317.793          34.000  
G28  22559129.717   118549027.408       -3179.474          44.000    22559126.329    92375846.829       -2477.338          36.000  
E12  22915507.412   120421810.313         -73.018          43.000    22915504.266    92271241.114         -55.770          45.000  
E10  24115451.358   126727535.763        1150.039          44.000    24115451.759    97102928.534         881.175          46.000  
G09  21540815.402   113197765.103        2310.712          34.000    21540814.743                        1802.079          23.000  
E33  23183451.567   121829864.152       -3068.307          46.000    23183450.607    93350151.059       -2351.198          44.000  
E19  22479056.580   118128224.279         418.697          43.000    22479053.480    90513832.426         320.802          42.000  
E02  27361281.463   143784452.067       -1476.617          32.000    27361279.404   110172533.168       -1131.340          35.000  
> 2024 06 26 15 02 06.9960000  0 14                     
G06  21647656.473   113759195.212        2026.823          41.000    21647656.682    88643541.550        1579.284          34.000  
G04  19267853.575   101253252.070         473.506          46.000    19267849.872    78898620.775         369.103          43.000  
G02  21950161.518   115348858.673       -4090.178          39.000                                                                  
G03  18897998.846    99309651.069       -1703.222          50.000    18897996.269    77384131.540       -1326.941          41.000  
G31  20859397.607   109616876.050       -1264.683          46.000    20859393.896    85416006.015        -985.397          37.000  
G19  21191673.472   111362989.192       -1648.662          41.000                                                                  
G17  21859894.860   114874520.095       -2975.054          42.000    21859892.037    89512594.751       -2318.385          34.000  
G28  22559734.776   118552207.082       -3180.103          44.000    22559731.393    92378324.490       -2478.028          36.000  
E12  22915521.292   120421883.523         -73.443          43.000    22915518.256    92271297.226         -56.369          45.000  
E10  24115232.757   126726385.773        1149.575          44.000    24115232.772    97102047.382         880.787          45.000  
G09  21540375.436   113195454.249        2310.806          31.000    21540373.607                        1803.776          23.000  
E33  23184035.637   121832932.756       -3069.032          45.000    23184034.636    93352502.296       -2351.462          44.000  
E19  22478976.888   118127805.768         418.115          43.000    22478973.897    90513511.739         320.428          42.000  
E02  27361561.768   143785928.779       -1477.069          32.000    27361560.345   110173664.709       -1131.827          35.000  
> 2024 06 26 15 02 07.9960000  0 14                     
G06  21647270.974   113757168.852        2025.857          43.000    21647271.095    88641962.580        1578.446          34.000  
G04  19267763.457   101252778.543         473.155          46.000    19267759.699    78898251.790         368.768          43.000  
G02  21950939.806   115352948.529       -4090.364          40.000                                                                  
G03  18898322.986    99311354.350       -1703.534          50.000    18898320.350    77385458.781       -1327.306          41.000  
G31  20859638.357   109618140.866       -1265.349          46.000    20859634.468    85416991.593        -986.403          36.000  
G19  21191987.309   111364638.013       -1649.427          41.000                                                                  
G17  21860461.019   114877495.055       -2975.067          43.000    21860458.123    89514912.923       -2318.591          34.000  
G28  22560339.982   118555387.288       -3180.578          44.000    22560336.623    92380802.580       -2478.644          36.000  
E12  22915535.223   120421957.160         -73.925          43.000    22915532.225    92271353.645         -56.706          45.000  
E10  24115013.862   126725236.091        1149.447          44.000    24115013.925    97101166.441         880.744          45.000  
G09  21539935.477   113193143.729        2310.454          33.000    21539932.017                        1803.688          23.000  
E33  23184619.673   121836001.687       -3069.115          45.000    23184618.710    93354853.815       -2351.769          44.000  
E19  22478897.184   118127387.579         418.157          43.000    22478894.400    90513191.328         320.218          42.000  
E02  27361843.059   143787406.000       -1477.342          32.000    27361841.505   110174796.607       -1132.329          35.000  
> 2024 06 26 15 02 08.9960000  0 14                     
G06  21646885.502   113755142.880        2025.880          43.000    21646885.624    88640383.901        1578.474          34.000  
G04  19267673.327   101252305.646         472.747          45.000    19267669.667    78897883.298         368.489          43.000  
G02  21951718.156   115357038.763       -4089.916          40.000                                                                  
G03  18898647.209    99313058.161       -1703.981          50.000    18898644.470    77386786.414       -1327.367          41.000  
G31  20859879.220   109619406.492       -1265.813          46.000    20859875.260    85417977.785        -986.277          36.000  
G19  21192301.179   111366287.605       -1649.649          40.000                                                                  
G17  21861027.224   114880470.528       -2975.720          43.000    21861024.231    89517231.463       -2318.812          33.000  
G28  22560945.387   118558568.093       -3180.798          44.000    22560941.905    92383281.128       -2478.906          36.000  
E12  22915549.522   120422031.287         -74.229          43.000    22915546.238    92271410.448         -56.887          45.000  
E10  24114795.036   126724086.757        1149.357          44.000    24114795.288    97100285.810         880.539          45.000  
G09  21539495.819   113190833.542        2309.966          34.000    21539491.335                        1792.650          23.000  
E33  23185204.045   121839071.066       -3069.364          46.000    23185203.087    93357205.661       -2351.890          44.000  
E19  22478817.822   118126969.868         417.615          43.000    22478814.844    90512871.249         320.108          42.000  
E02  27362125.377   143788883.790       -1478.167          33.000    27362122.786   110175928.916       -1132.364          35.000  
> 2024 06 26 15 02 09.9960000  0 14                     
G06  21646500.088   113753117.255        2025.095          43.000    21646500.177    88638805.472        1578.539          33.000  
G04  19267583.393   101251833.290         472.014          46.000    19267579.797    78897515.225         367.884          44.000  
G02  21952496.626   115361129.246       -4090.563          40.000                                                                  
G03  18898971.437    99314762.423       -1704.535          50.000    18898968.738    77388114.430       -1328.443          41.000  
G31  20860120.258   109620672.890       -1266.852          46.000    20860116.301    85418964.606        -987.011          36.000  
G19  21192615.265   111367937.910       -1650.709          41.000                                                                  
G17  21861593.544   114883446.468       -2976.315          43.000    21861590.514    89519550.324       -2318.931          34.000  
G28  22561550.828   118561749.453       -3181.738          44.000    22561547.258    92385760.098       -2479.541          36.000  
E12  22915563.713   120422105.854         -74.792          43.000    22915560.420    92271467.570         -57.184          45.000  
E10  24114576.492   126722937.762        1148.852          44.000    24114576.571    97099405.405         880.255          45.000  
G09  21539056.111   113188523.692        2309.548          33.000    21539050.001                        1798.745          22.000  
E33  23185788.418   121842140.804       -3069.973          45.000    23185787.356    93359557.795       -2352.368          45.000  
E19  22478738.464   118126552.499         417.176          43.000    22478735.431    90512551.456         319.612          42.000  
E02  27362407.615   143790362.028       -1478.726          33.000    27362404.137   110177061.594       -1132.606          35.000  
> 2024 06 26 15 02 10.9960000  0 14                     
G06  21646114.727   113751091.868        2025.178          42.000    21646114.748    88637227.276        1577.389          33.000  
G04  19267493.636   101251361.330         471.543          46.000    19267490.063    78897147.466         367.318          44.000  
G02  21953275.078   115365219.887       -4090.958          42.000                                                                  
G03  18899295.710    99316466.992       -1704.801          50.000    18899293.117    77389442.677       -1328.537          41.000  
G31  20860361.318   109621939.883       -1267.427          46.000    20860357.333    85419951.881        -987.801          36.000  
G19  21192929.419   111369588.804       -1651.396          41.000                                                                  
G17  21862159.959   114886422.734       -2976.923          43.000    21862156.838    89521869.489       -2319.385          34.000  
G28  22562156.420   118564931.207       -3182.117          44.000    22562152.809    92388239.387       -2480.023          36.000  
E12  22915577.881   120422180.717         -75.289          43.000    22915574.590    92271524.942         -57.656          45.000  
E10  24114357.708   126721788.925        1148.540          44.000    24114357.898    97098525.134         880.092          45.000  
G09  21538616.391   113186213.930        2309.131          32.000    21538609.164                        1804.521          23.000  
E33  23186372.800   121845210.759       -3070.297          46.000    23186371.419    93361910.094       -2352.579          44.000  
E19  22478659.170   118126135.352         416.840          44.000    22478655.946    90512231.819         319.508          42.000  
E02  27362689.263   143791840.644       -1478.995          33.000    27362685.700   110178194.598       -1133.639          35.000  
> 2024 06 26 15 02 11.9960000  0 14                     
G06  21645729.400   113749066.802        2024.868          43.000    21645729.397    88635649.299        1577.720          34.000  
G04  19267403.935   101250889.895         471.128          46.000    19267400.319    78896780.103         367.130          44.000  
G02  21954053.618   115369310.791       -4091.086          41.000                                                                  
G03  18899620.140    99318172.009       -1705.389          50.000    18899617.500    77390771.257       -1328.867          40.000  
G31  20860602.646   109623207.626       -1268.140          45.000    20860598.566    85420939.713        -988.121          37.000  
G19  21193243.722   111371240.383       -1651.806          41.000                                                                  
G17  21862726.432   114889399.372       -2977.048          44.000    21862723.269    89524188.952       -2319.440          33.000  
G28  22562761.955   118568113.468       -3182.629          44.000    22562758.424    92390719.074       -2480.334          36.000  
E12  22915592.117   120422255.978         -75.527          43.000    22915589.038    92271582.610         -57.904          45.000  
E10  24114139.512   126720640.370        1148.407          45.000    24114139.356    97097645.084         879.889          45.000  
G09  21538176.711   113183904.396        2310.191          32.000    21538169.089                        1794.342          22.000  
E33  23186957.338   121848281.038       -3070.375          46.000    23186955.509    93364262.644       -2352.671          44.000  
E19  22478579.899   118125718.567         416.626          44.000    22478576.762    90511912.470         319.247          42.000  
E02  27362970.209   143793319.746       -1479.331          32.000    27362967.136   110179327.873       -1133.217          35.000  
> 2024 06 26 15 02 12.9960000  0 14                     
G06  21645344.129   113747041.967        2024.385          43.000    21645344.117    88634071.506        1577.576          34.000  
G04  19267314.273   101250418.874         470.745          46.000    19267310.674    78896413.066         366.844          44.000  
G02  21954832.066   115373401.834       -4091.248          42.000                                                                  
G03  18899944.646    99319877.332       -1705.518          50.000    18899941.972    77392100.078       -1329.109          40.000  
G31  20860844.017   109624475.989       -1268.674          46.000    20860839.950    85421928.054        -988.735          36.000  
G19  21193558.166   111372892.562       -1652.818          40.000                                                                  
G17  21863293.014   114892376.353       -2977.284          44.000    21863289.765    89526508.693       -2320.016          34.000  
G28  22563367.596   118571296.154       -3183.112          44.000    22563364.129    92393199.063       -2479.688          36.000  
E12  22915606.672   120422331.541         -75.756          43.000    22915603.423    92271640.510         -58.022          45.000  
E10  24113920.863   126719492.008        1148.167          45.000    24113921.014    97096765.168         879.736          45.000  
G09  21537736.973   113181595.078        2308.805          31.000    21537728.725                        1799.086          21.000  
E33  23187541.469   121851351.565       -3070.846          46.000    23187539.705    93366615.390       -2352.984          44.000  
E19  22478500.650   118125302.064         416.187          44.000    22478497.297    90511593.340         318.875          42.000  
E02  27363250.977   143794799.170       -1479.812          32.000    27363248.624   110180461.477       -1133.943          35.000  
> 2024 06 26 15 02 13.9960000  0 14                     
G06  21644958.826   113745017.490        2024.183          43.000    21644958.917    88632494.018        1576.804          35.000  
G04  19267224.762   101249948.424         470.017          46.000    19267221.229    78896046.490         366.134          44.000  
G02  21955610.677   115377493.205       -4091.829          42.000                                                                  
G03  18900269.172    99321583.141       -1705.975          49.000    18900266.470    77393429.277       -1329.422          40.000  
G31  20861085.570   109625745.126       -1269.714          46.000    20861081.394    85422916.965        -989.425          36.000  
G19  21193872.726   111374545.496       -1653.491          41.000                                                                  
G17  21863859.690   114895353.837       -2977.957          44.000    21863856.403    89528828.834       -2320.834          34.000  
G28  22563973.408   118574479.390       -3183.624          44.000    22563969.879    92395679.529       -2480.975          37.000  
E12  22915620.998   120422407.569         -76.489          43.000    22915617.890    92271698.760         -58.454          45.000  
E10  24113702.340   126718343.979        1147.676          44.000    24113702.548    97095885.502         879.454          45.000  
G09  21537297.302   113179286.091        2308.584          31.000    21537289.553                        1808.980          21.000  
E33  23188125.708   121854422.453       -3071.167          46.000    23188124.128    93368968.414       -2353.237          44.000  
E19  22478421.345   118124885.914         415.946          43.000    22478418.350    90511274.481         318.428          42.000  
E02  27363532.514   143796279.100       -1480.091          33.000    27363530.124   110181595.437       -1134.061          35.000  
> 2024 06 26 15 02 14.9960000  0 14                     
G06  21644573.638   113742993.381        2023.951          43.000    21644573.797    88630916.773        1577.048          35.000  
G04  19267135.384   101249478.497         469.676          46.000    19267131.850    78895680.304         365.946          44.000  
G02  21956389.329   115381584.841       -4091.629          40.000                                                                  
G03  18900593.763    99323289.405       -1706.455          49.000    18900591.136    77394758.824       -1329.478          40.000  
G31  20861327.211   109627014.972       -1270.193          46.000    20861323.022    85423906.468        -989.420          36.000  
G19  21194187.353   111376199.097       -1654.013          41.000                                                                  
G17  21864426.271   114898331.723       -2978.052          43.000    21864423.085    89531149.251       -2320.692          34.000  
G28  22564579.236   118577663.160       -3183.997          44.000    22564575.762    92398160.366       -2481.000          37.000  
E12  22915635.727   120422483.997         -76.594          43.000    22915632.502    92271757.319         -58.592          45.000  
E10  24113483.897   126717196.223        1147.744          44.000    24113484.104    97095006.055         879.501          45.000  
G09  21536857.804   113176977.285        2309.463          31.000    21536850.497                        1804.247          21.000  
E33  23188710.025   121857493.697       -3071.431          45.000    23188708.453    93371321.699       -2353.266          44.000  
E19  22478342.500   118124470.120         415.698          43.000    22478339.239    90510955.869         318.546          42.000  
E02  27363813.257   143797759.525       -1480.457          33.000    27363811.856   110182729.803       -1134.673          35.000  
> 2024 06 26 15 02 15.9960000  0 14                     
G06  21644188.575   113740969.661        2023.517          43.000    21644188.756    88629339.826        1576.640          35.000  
G04  19267046.078   101249009.142         469.147          45.000    19267042.437    78895314.577         365.651          44.000  
G02  21957168.009   115385676.790       -4091.648          39.000                                                                  
G03  18900918.514    99324996.144       -1706.810          49.000    18900915.882    77396088.761       -1330.144          41.000  
G31  20861568.990   109628285.618       -1270.930          46.000    20861564.797    85424896.561        -989.786          36.000  
G19  21194502.166   111377853.483       -1654.843          41.000                                                                  
G17  21864993.083   114901310.132       -2978.778          43.000    21864989.819    89533470.064       -2320.615          34.000  
G28  22565185.201   118580847.502       -3184.564          44.000    22565181.718    92400641.681       -2481.598          37.000  
E12  22915650.472   120422560.898         -77.095          43.000    22915647.085    92271816.250         -59.053          45.000  
E10  24113265.713   126716048.810        1147.277          45.000    24113265.726    97094126.875         879.107          45.000  
G09  21536418.367   113174668.877        2309.075          32.000    21536411.153                        1796.644          22.000  
E33  23189294.516   121860565.320       -3071.778          46.000    23189292.905    93373675.293       -2353.787          44.000  
E19  22478263.152   118124054.688         415.333          43.000    22478260.182    90510637.547         318.341          42.000  
E02  27364094.249   143799240.445       -1480.947          32.000    27364093.766   110183864.508       -1134.612          35.000  
> 2024 06 26 15 02 16.9960000  0 14                     
G06  21643803.642   113738946.271        2023.340          43.000    21643803.680    88627763.171        1576.700          34.000  
G04  19266956.896   101248540.318         468.652          46.000    19266953.290    78894949.247         365.351          44.000  
G02  21957946.677   115389769.023       -4092.261          41.000                                                                  
G03  18901243.363    99326703.334       -1707.324          50.000    18901240.743    77397419.036       -1330.384          40.000  
G31  20861811.083   109629557.010       -1271.751          46.000    20861806.792    85425887.279        -990.995          36.000  
G19  21194817.134   111379508.515       -1655.226          41.000                                                                  
G17  21865559.886   114904288.964       -2978.949          44.000    21865556.613    89535791.245       -2321.405          34.000  
G28  22565791.276   118584032.354       -3185.028          44.000    22565787.761    92403123.389       -2481.946          37.000  
E12  22915665.508   120422638.197         -77.203          43.000    22915661.836    92271875.478         -59.165          45.000  
E10  24113047.516   126714901.692        1147.255          44.000    24113047.440    97093247.917         878.955          45.000  
G09  21535979.076   113172333.2113       2308.313          32.000    21535970.786                        1803.500          22.000  
E33  23189879.332   121863637.312       -3071.955          46.000    23189877.644    93376029.136       -2353.695          44.000  
E19  22478184.341   118123639.614         415.100          43.000    22478181.111    90510319.517         318.038          42.000  
E02  27364374.857   143800721.856       -1481.454          32.000    27364375.644   110184999.631       -1134.891          35.000  
> 2024 06 26 15 02 17.9960000  0 14                     
G06  21643418.694   113736923.087        2023.263          42.000    21643418.714    88626186.677        1576.453          34.000  
G04  19266867.768   101248071.912         468.187          46.000    19266864.165    78894584.263         364.837          44.000  
G02  21958725.490   115393861.406       -4092.418          41.000                                                                  
G03  18901568.321    99328410.845       -1707.598          50.000    18901565.687    77398749.583       -1330.770          40.000  
G31  20862053.177   109630829.008       -1272.121          46.000    20862048.860    85426878.465        -991.332          37.000  
G19  21195132.288   111381164.187       -1655.951          41.000                                                                  
G17  21866126.763   114907268.139       -2979.399          43.000    21866123.490    89538112.670       -2321.666          34.000  
G28  22566397.328   118587217.618       -3185.339          44.000    22566393.984    92405605.418       -2481.891          37.000  
E12  22915680.306   120422715.826         -77.573          43.000    22915676.791    92271934.965         -59.613          45.000  
E10  24112829.356   126713754.769        1146.964          44.000    24112829.104    97092369.110         878.699          45.000  
G09  21535538.254                        2311.665          31.000    21535532.572                        1784.132          21.000  
E33  23190463.944   121866709.534       -3072.254          46.000    23190462.270    93378383.185       -2354.024          44.000  
E19  22478105.590   118123224.796         414.859          43.000    22478102.245    90510001.665         317.799          42.000  
E02  27364654.979   143802203.648       -1481.708          31.000    27364657.644   110186135.032       -1135.396          35.000  
> 2024 06 26 15 02 18.9960000  0 15                     
G06  21643033.754   113734900.250        2022.678          42.000    21643033.754    88624610.431        1576.045          34.000  
G04  19266778.728   101247603.971         467.736          46.000    19266775.089    78894219.652         364.224          44.000  
G02  21959504.365   115397954.001       -4092.555          41.000                                                                  
G03  18901893.348    99330118.749       -1708.057          50.000    18901890.719    77400080.403       -1330.864          41.000  
G31  20862295.426   109632101.713       -1272.983          47.000    20862291.057    85427870.174        -991.971          36.000  
G19  21195447.531   111382820.511       -1656.991          41.000                                                                  
G17  21866693.673   114910247.692       -2979.906          43.000    21866690.463    89540434.395       -2321.826          34.000  
G28  22567003.583   118590403.370       -3186.047          44.000    22567000.285    92408087.816       -2482.672          37.000  
E12  22915694.909   120422793.813         -78.109          43.000    22915691.460    92271994.721         -59.815          45.000  
E10  24112611.084   126712608.086        1146.378          45.000    24112611.087    97091490.488         878.368          45.000  
G09  21535095.422   113167689.5343       2306.929          31.000    21535095.381                        1800.752          20.000  
E33  23191048.378   121869782.049       -3072.676          46.000    23191046.929    93380737.449       -2354.548          44.000  
E19  22478026.482   118122810.280         414.351          43.000    22478023.271    90509684.060         317.513          42.000  
E02  27364935.364   143803685.790       -1482.142          31.000    27364939.892   110187270.724       -1136.017          35.000  
E07  26516663.176                       -3749.875          25.000                                                                  
> 2024 06 26 15 02 19.9960000  0 16                     
G06  21642648.948   113732877.742        2022.180          42.000    21642648.875    88623034.421        1576.037          35.000  
G04  19266689.799   101247136.605         467.108          46.000    19266686.085    78893855.468         363.798          44.000  
G02  21960283.242   115402046.918       -4093.127          41.000                                                                  
G03  18902218.526    99331827.134       -1708.706          50.000    18902215.698    77401411.614       -1331.377          40.000  
G31  20862537.723   109633375.171       -1273.843          47.000    20862533.384    85428862.455        -992.184          36.000  
G19  21195762.938   111384477.534       -1657.370          41.000                                                                  
G17  21867260.729   114913227.708       -2980.416          43.000    21867257.606    89542756.500       -2322.407          34.000  
G28  22567609.732   118593589.679       -3186.572          44.000    22567606.689    92410570.650       -2483.057          37.000  
E12  22915709.729   120422872.254         -78.780          43.000    22915706.363    92272054.812         -60.240          45.000  
E10  24112392.926   126711461.719        1146.182          45.000    24112392.951    97090612.104         878.226          45.000  
G09  21534655.032   113165382.0602       2306.340          31.000    21534656.775                        1803.136          19.000  
E33  23191633.074   121872854.938       -3073.083          45.000    23191631.545    93383091.993       -2354.720          43.000  
E19  22477947.520   118122396.149         413.761          43.000    22477944.343    90509366.720         317.309          42.000  
E02  27365216.330   143805168.502       -1482.938          31.000    27365222.108   110188406.837       -1136.506          35.000  
G25  24004328.837   126143599.3761      -1444.369          32.000                                                                  
E07  26517371.380                       -3750.338          25.000                                                                  
